[{"icao": "07FA", "iata": "OCA", "name": "Ocean Reef Club Airport", "lat": 25.325399, "lon": -80.274803, "elev_ft": 8, "type": "medium_airport"}, {"icao": "5A8", "iata": "WKK", "name": "Aleknagik / New Airport", "lat": 59.2826004028, "lon": -158.617996216, "elev_ft": 66, "type": "medium_airport"}, {"icao": "K61B", "iata": "BLD", "name": "Boulder City Municipal Airport", "lat": 35.947161, "lon": -114.858799, "elev_ft": 2201, "type": "medium_airport"}, {"icao": "K67L", "iata": "MFH", "name": "Mesquite Airport", "lat": 36.833105, "lon": -114.055928, "elev_ft": 1978, "type": "medium_airport"}, {"icao": "KABE", "iata": "ABE", "name": "Lehigh Valley International Airport", "lat": 40.651773, "lon": -75.442797, "elev_ft": 393, "type": "medium_airport"}, {"icao": "KABI", "iata": "ABI", "name": "Abilene Regional Airport", "lat": 32.4113006592, "lon": -99.68190002440001, "elev_ft": 1791, "type": "medium_airport"}, {"icao": "KABQ", "iata": "ABQ", "name": "Albuquerque International Sunport", "lat": 35.039976, "lon": -106.608925, "elev_ft": 5355, "type": "large_airport"}, {"icao": "KABR", "iata": "ABR", "name": "Aberdeen Regional Airport", "lat": 45.449100494384766, "lon": -98.42179870605469, "elev_ft": 1302, "type": "medium_airport"}, {"icao": "KABY", "iata": "ABY", "name": "Southwest Georgia Regional Airport", "lat": 31.532946, "lon": -84.196215, "elev_ft": 197, "type": "medium_airport"}, {"icao": "KACK", "iata": "ACK", "name": "Nantucket Memorial Airport", "lat": 41.25310135, "lon": -70.06020355, "elev_ft": 47, "type": "medium_airport"}, {"icao": "KACT", "iata": "ACT", "name": "Waco Regional Airport", "lat": 31.611299514770508, "lon": -97.23049926757812, "elev_ft": 516, "type": "medium_airport"}, {"icao": "KACV", "iata": "ACV", "name": "California Redwood Coast-Humboldt County Airport", "lat": 40.978101, "lon": -124.109, "elev_ft": 221, "type": "medium_airport"}, {"icao": "KACY", "iata": "ACY", "name": "Atlantic City International Airport", "lat": 39.456201, "lon": -74.577511, "elev_ft": 75, "type": "medium_airport"}, {"icao": "KADH", "iata": "ADT", "name": "Ada Regional Airport", "lat": 34.805214, "lon": -96.671988, "elev_ft": 1016, "type": "medium_airport"}, {"icao": "KADW", "iata": "ADW", "name": "Joint Base Andrews", "lat": 38.810799, "lon": -76.866997, "elev_ft": 280, "type": "medium_airport"}, {"icao": "KAEX", "iata": "AEX", "name": "Alexandria International Airport", "lat": 31.325828, "lon": -92.546702, "elev_ft": 89, "type": "medium_airport"}, {"icao": "KAFW", "iata": "AFW", "name": "Perot Field/Fort Worth Alliance Airport", "lat": 32.99044, "lon": -97.31947, "elev_ft": 722, "type": "medium_airport"}, {"icao": "KAGC", "iata": "AGC", "name": "Allegheny County Airport", "lat": 40.354401, "lon": -79.930199, "elev_ft": 1252, "type": "medium_airport"}, {"icao": "KAGS", "iata": "AGS", "name": "Augusta Regional At Bush Field", "lat": 33.3699, "lon": -81.9645, "elev_ft": 144, "type": "medium_airport"}, {"icao": "KAHN", "iata": "AHN", "name": "Athens Ben Epps Airport", "lat": 33.948842, "lon": -83.325634, "elev_ft": 808, "type": "medium_airport"}, {"icao": "KAIA", "iata": "AIA", "name": "Alliance Municipal Airport", "lat": 42.052543, "lon": -102.803965, "elev_ft": 3931, "type": "medium_airport"}, {"icao": "KAKR", "iata": "AKC", "name": "Akron Fulton International Airport", "lat": 41.037355, "lon": -81.46784, "elev_ft": 1067, "type": "medium_airport"}, {"icao": "KALB", "iata": "ALB", "name": "Albany International Airport", "lat": 42.748299, "lon": -73.801697, "elev_ft": 285, "type": "large_airport"}, {"icao": "KALI", "iata": "ALI", "name": "Alice International Airport", "lat": 27.7409, "lon": -98.026901, "elev_ft": 178, "type": "medium_airport"}, {"icao": "KALM", "iata": "ALM", "name": "Alamogordo White Sands Regional Airport", "lat": 32.837818, "lon": -105.993149, "elev_ft": 4200, "type": "medium_airport"}, {"icao": "KALN", "iata": "ALN", "name": "St Louis Regional Airport", "lat": 38.89030075069999, "lon": -90.0459976196, "elev_ft": 544, "type": "medium_airport"}, {"icao": "KALO", "iata": "ALO", "name": "Waterloo Regional Airport", "lat": 42.557098388671875, "lon": -92.40029907226562, "elev_ft": 873, "type": "medium_airport"}, {"icao": "KALS", "iata": "ALS", "name": "San Luis Valley Regional Airport/Bergman Field", "lat": 37.434898, "lon": -105.866997, "elev_ft": 7539, "type": "medium_airport"}, {"icao": "KALW", "iata": "ALW", "name": "Walla Walla Regional Airport", "lat": 46.09489822, "lon": -118.288002, "elev_ft": 1194, "type": "medium_airport"}, {"icao": "KAMA", "iata": "AMA", "name": "Rick Husband Amarillo International Airport", "lat": 35.217857, "lon": -101.706444, "elev_ft": 3607, "type": "medium_airport"}, {"icao": "KANB", "iata": "ANB", "name": "Anniston Regional Airport", "lat": 33.5882, "lon": -85.8581, "elev_ft": 612, "type": "medium_airport"}, {"icao": "KAND", "iata": "AND", "name": "Anderson Regional Airport", "lat": 34.4945983887, "lon": -82.70939636230001, "elev_ft": 782, "type": "medium_airport"}, {"icao": "KAOO", "iata": "AOO", "name": "Altoona Blair County Airport", "lat": 40.296398, "lon": -78.32, "elev_ft": 1503, "type": "medium_airport"}, {"icao": "KAPA", "iata": "APA", "name": "Centennial Airport", "lat": 39.57009888, "lon": -104.848999, "elev_ft": 5885, "type": "medium_airport"}, {"icao": "KAPF", "iata": "APF", "name": "Naples Municipal Airport", "lat": 26.1525993347, "lon": -81.7752990723, "elev_ft": 8, "type": "medium_airport"}, {"icao": "KAPG", "iata": "APG", "name": "Phillips Army Air Field", "lat": 39.466202, "lon": -76.1688, "elev_ft": 57, "type": "medium_airport"}, {"icao": "KAPN", "iata": "APN", "name": "Alpena County Regional Airport", "lat": 45.0780983, "lon": -83.56030273, "elev_ft": 690, "type": "medium_airport"}, {"icao": "KARA", "iata": "ARA", "name": "Acadiana Regional Airport", "lat": 30.0378, "lon": -91.883904, "elev_ft": 24, "type": "medium_airport"}, {"icao": "KART", "iata": "ART", "name": "Watertown International Airport", "lat": 43.991901, "lon": -76.021698, "elev_ft": 325, "type": "medium_airport"}, {"icao": "KASE", "iata": "ASE", "name": "Aspen-Pitkin County Airport (Sardy Field)", "lat": 39.223202, "lon": -106.869003, "elev_ft": 7820, "type": "medium_airport"}, {"icao": "KAST", "iata": "AST", "name": "Astoria Regional Airport", "lat": 46.158000946, "lon": -123.878997803, "elev_ft": 15, "type": "medium_airport"}, {"icao": "KATL", "iata": "ATL", "name": "Hartsfield Jackson Atlanta International Airport", "lat": 33.6367, "lon": -84.428101, "elev_ft": 1026, "type": "large_airport"}, {"icao": "KATW", "iata": "ATW", "name": "Appleton International Airport", "lat": 44.258515, "lon": -88.519, "elev_ft": 918, "type": "medium_airport"}, {"icao": "KATY", "iata": "ATY", "name": "Watertown Regional Airport", "lat": 44.91400146, "lon": -97.15470123, "elev_ft": 1749, "type": "medium_airport"}, {"icao": "KAUG", "iata": "AUG", "name": "Augusta State Airport", "lat": 44.320598602299995, "lon": -69.7973022461, "elev_ft": 352, "type": "medium_airport"}, {"icao": "KAUS", "iata": "AUS", "name": "Austin Bergstrom International Airport", "lat": 30.197535, "lon": -97.662015, "elev_ft": 542, "type": "large_airport"}, {"icao": "KAUW", "iata": "AUW", "name": "Wausau Downtown Airport", "lat": 44.9262008667, "lon": -89.6266021729, "elev_ft": 1201, "type": "medium_airport"}, {"icao": "KAVL", "iata": "AVL", "name": "Asheville Regional Airport", "lat": 35.435488, "lon": -82.541853, "elev_ft": 2165, "type": "medium_airport"}, {"icao": "KAVP", "iata": "AVP", "name": "Wilkes-Barre/Scranton International Airport", "lat": 41.337064, "lon": -75.724232, "elev_ft": 962, "type": "medium_airport"}, {"icao": "KAXN", "iata": "AXN", "name": "Chandler Field", "lat": 45.866299, "lon": -95.394699, "elev_ft": 1425, "type": "medium_airport"}, {"icao": "KAZO", "iata": "AZO", "name": "Kalamazoo/Battle Creek International Airport", "lat": 42.232105, "lon": -85.549637, "elev_ft": 874, "type": "medium_airport"}, {"icao": "KBAB", "iata": "BAB", "name": "Beale Air Force Base", "lat": 39.136101, "lon": -121.436996, "elev_ft": 113, "type": "medium_airport"}, {"icao": "KBAD", "iata": "BAD", "name": "Barksdale Air Force Base", "lat": 32.501801, "lon": -93.662697, "elev_ft": 166, "type": "medium_airport"}, {"icao": "KBAF", "iata": "BAF", "name": "Westfield-Barnes Regional Airport", "lat": 42.157799, "lon": -72.715599, "elev_ft": 271, "type": "medium_airport"}, {"icao": "KBAK", "iata": "CLU", "name": "Columbus Municipal Airport", "lat": 39.262386, "lon": -85.895576, "elev_ft": 656, "type": "medium_airport"}, {"icao": "KBBD", "iata": "BBD", "name": "Curtis Field", "lat": 31.178931, "lon": -99.324732, "elev_ft": 1827, "type": "medium_airport"}, {"icao": "KBBG", "iata": "BKG", "name": "Branson Airport", "lat": 36.532082, "lon": -93.200544, "elev_ft": 1302, "type": "medium_airport"}, {"icao": "KBCE", "iata": "BCE", "name": "Bryce Canyon Airport", "lat": 37.706401825, "lon": -112.144996643, "elev_ft": 7590, "type": "medium_airport"}, {"icao": "KBCT", "iata": "BCT", "name": "Boca Raton Airport", "lat": 26.3785, "lon": -80.107697, "elev_ft": 13, "type": "medium_airport"}, {"icao": "KBDE", "iata": "BDE", "name": "Baudette International Airport", "lat": 48.728401, "lon": -94.612198, "elev_ft": 1086, "type": "medium_airport"}, {"icao": "KBDL", "iata": "BDL", "name": "Bradley International Airport", "lat": 41.938555, "lon": -72.688016, "elev_ft": 173, "type": "large_airport"}, {"icao": "KBDR", "iata": "BDR", "name": "Igor I Sikorsky Memorial Airport", "lat": 41.163502, "lon": -73.126198, "elev_ft": 9, "type": "medium_airport"}, {"icao": "KBED", "iata": "BED", "name": "Laurence G Hanscom Field", "lat": 42.470001, "lon": -71.289001, "elev_ft": 133, "type": "medium_airport"}, {"icao": "KBFD", "iata": "BFD", "name": "Bradford Regional Airport", "lat": 41.8031005859375, "lon": -78.64009857177734, "elev_ft": 2143, "type": "medium_airport"}, {"icao": "KBFF", "iata": "BFF", "name": "Western Neb. Rgnl/William B. Heilig Airport", "lat": 41.87400055, "lon": -103.5960007, "elev_ft": 3967, "type": "medium_airport"}, {"icao": "KBFI", "iata": "BFI", "name": "King County International Airport - Boeing Field", "lat": 47.527042, "lon": -122.29995, "elev_ft": 21, "type": "medium_airport"}, {"icao": "KBFL", "iata": "BFL", "name": "Meadows Field", "lat": 35.433601, "lon": -119.056999, "elev_ft": 510, "type": "medium_airport"}, {"icao": "KBFM", "iata": "BFM", "name": "Mobile Downtown Airport", "lat": 30.626800537100003, "lon": -88.06809997559999, "elev_ft": 26, "type": "medium_airport"}, {"icao": "KBGM", "iata": "BGM", "name": "Greater Binghamton/Edwin A Link field", "lat": 42.20869827, "lon": -75.97979736, "elev_ft": 1636, "type": "medium_airport"}, {"icao": "KBGR", "iata": "BGR", "name": "Bangor International Airport", "lat": 44.806364, "lon": -68.826668, "elev_ft": 192, "type": "medium_airport"}, {"icao": "KBHB", "iata": "BHB", "name": "Hancock County-Bar Harbor Airport", "lat": 44.45000076, "lon": -68.3615036, "elev_ft": 83, "type": "medium_airport"}, {"icao": "KBHM", "iata": "BHM", "name": "Birmingham-Shuttlesworth International Airport", "lat": 33.562877, "lon": -86.750712, "elev_ft": 650, "type": "large_airport"}, {"icao": "KBIF", "iata": "BIF", "name": "Biggs Army Air Field (Fort Bliss)", "lat": 31.84950066, "lon": -106.3799973, "elev_ft": 3946, "type": "medium_airport"}, {"icao": "KBIH", "iata": "BIH", "name": "Eastern Sierra Regional Airport", "lat": 37.3731, "lon": -118.363998, "elev_ft": 4124, "type": "medium_airport"}, {"icao": "KBIL", "iata": "BIL", "name": "Billings Logan International Airport", "lat": 45.808932, "lon": -108.541242, "elev_ft": 3652, "type": "medium_airport"}, {"icao": "KBIS", "iata": "BIS", "name": "Bismarck Municipal Airport", "lat": 46.772734, "lon": -100.746874, "elev_ft": 1661, "type": "medium_airport"}, {"icao": "KBIX", "iata": "BIX", "name": "Keesler Air Force Base", "lat": 30.4104003906, "lon": -88.92440032959999, "elev_ft": 33, "type": "medium_airport"}, {"icao": "KBJC", "iata": "BJC", "name": "Rocky Mountain Metropolitan Airport", "lat": 39.908798, "lon": -105.116997, "elev_ft": 5673, "type": "medium_airport"}, {"icao": "KBJI", "iata": "BJI", "name": "Bemidji Regional Airport", "lat": 47.50939941, "lon": -94.93370056, "elev_ft": 1391, "type": "medium_airport"}, {"icao": "KBKE", "iata": "BKE", "name": "Baker City Municipal Airport", "lat": 44.837299346900004, "lon": -117.808998108, "elev_ft": 3373, "type": "medium_airport"}, {"icao": "KBKF", "iata": "BFK", "name": "Buckley Space Force Base", "lat": 39.701698, "lon": -104.751999, "elev_ft": 5662, "type": "medium_airport"}, {"icao": "KBKL", "iata": "BKL", "name": "Burke Lakefront Airport", "lat": 41.51750183105469, "lon": -81.68329620361328, "elev_ft": 583, "type": "medium_airport"}, {"icao": "KBKW", "iata": "BKW", "name": "Raleigh County Memorial Airport", "lat": 37.7873, "lon": -81.124199, "elev_ft": 2504, "type": "medium_airport"}, {"icao": "KBLF", "iata": "BLF", "name": "Mercer County Airport", "lat": 37.295799, "lon": -81.207703, "elev_ft": 2857, "type": "medium_airport"}, {"icao": "KBLH", "iata": "BLH", "name": "Blythe Airport", "lat": 33.6192016602, "lon": -114.717002869, "elev_ft": 399, "type": "medium_airport"}, {"icao": "KBLI", "iata": "BLI", "name": "Bellingham International Airport", "lat": 48.79280090332031, "lon": -122.53800201416016, "elev_ft": 170, "type": "medium_airport"}, {"icao": "KBLV", "iata": "BLV", "name": "Scott AFB/Midamerica Airport", "lat": 38.5452, "lon": -89.835197, "elev_ft": 459, "type": "medium_airport"}, {"icao": "KBMG", "iata": "BMG", "name": "Monroe County Airport", "lat": 39.145999908447266, "lon": -86.61669921875, "elev_ft": 846, "type": "medium_airport"}, {"icao": "KBMI", "iata": "BMI", "name": "Central Illinois Regional Airport at Bloomington-Normal", "lat": 40.4771, "lon": -88.915901, "elev_ft": 871, "type": "medium_airport"}, {"icao": "KBNA", "iata": "BNA", "name": "Nashville International Airport", "lat": 36.1245, "lon": -86.6782, "elev_ft": 599, "type": "large_airport"}, {"icao": "KBNO", "iata": "BNO", "name": "Burns Municipal Airport", "lat": 43.590463, "lon": -118.955154, "elev_ft": 4148, "type": "medium_airport"}, {"icao": "KBOI", "iata": "BOI", "name": "Boise Air Terminal/Gowen Field", "lat": 43.5644, "lon": -116.223, "elev_ft": 2871, "type": "large_airport"}, {"icao": "KBOS", "iata": "BOS", "name": "Boston Logan International Airport", "lat": 42.36197, "lon": -71.0079, "elev_ft": 20, "type": "large_airport"}, {"icao": "KBPI", "iata": "BPI", "name": "Miley Memorial Field", "lat": 42.58509827, "lon": -110.1110001, "elev_ft": 6990, "type": "medium_airport"}, {"icao": "KBPK", "iata": "WMH", "name": "Ozark Regional Airport", "lat": 36.3689002991, "lon": -92.47049713130001, "elev_ft": 928, "type": "medium_airport"}, {"icao": "KBPT", "iata": "BPT", "name": "Jack Brooks Regional Airport", "lat": 29.9508, "lon": -94.020699, "elev_ft": 15, "type": "medium_airport"}, {"icao": "KBQK", "iata": "BQK", "name": "Brunswick Golden Isles Airport", "lat": 31.258801, "lon": -81.466499, "elev_ft": 26, "type": "medium_airport"}, {"icao": "KBRD", "iata": "BRD", "name": "Brainerd Lakes Regional Airport", "lat": 46.402861, "lon": -94.129727, "elev_ft": 1232, "type": "medium_airport"}, {"icao": "KBRL", "iata": "BRL", "name": "Southeast Iowa Regional Airport", "lat": 40.783199310302734, "lon": -91.12550354003906, "elev_ft": 698, "type": "medium_airport"}, {"icao": "KBRO", "iata": "BRO", "name": "Brownsville South Padre Island International Airport", "lat": 25.907238, "lon": -97.425235, "elev_ft": 22, "type": "medium_airport"}, {"icao": "KBTL", "iata": "BTL", "name": "Battle Creek Executive Airport at Kellogg Field", "lat": 42.307301, "lon": -85.251503, "elev_ft": 952, "type": "medium_airport"}, {"icao": "KBTM", "iata": "BTM", "name": "Bert Mooney Airport", "lat": 45.95479965209961, "lon": -112.49700164794922, "elev_ft": 5550, "type": "medium_airport"}, {"icao": "KBTR", "iata": "BTR", "name": "Baton Rouge Metropolitan Airport", "lat": 30.533199, "lon": -91.149597, "elev_ft": 70, "type": "medium_airport"}, {"icao": "KBTV", "iata": "BTV", "name": "Patrick Leahy Burlington International Airport", "lat": 44.471901, "lon": -73.153297, "elev_ft": 335, "type": "medium_airport"}, {"icao": "KBUF", "iata": "BUF", "name": "Buffalo Niagara International Airport", "lat": 42.940498, "lon": -78.732201, "elev_ft": 728, "type": "large_airport"}, {"icao": "KBUR", "iata": "BUR", "name": "Hollywood Burbank/Bob Hope Airport", "lat": 34.202834, "lon": -118.35805, "elev_ft": 778, "type": "large_airport"}, {"icao": "KBVI", "iata": "BFP", "name": "Beaver County Airport", "lat": 40.772499, "lon": -80.391403, "elev_ft": 1253, "type": "medium_airport"}, {"icao": "KBVY", "iata": "BVY", "name": "Beverly Regional Airport", "lat": 42.584202, "lon": -70.916496, "elev_ft": 107, "type": "medium_airport"}, {"icao": "KBWG", "iata": "BWG", "name": "Bowling Green Warren County Regional Airport", "lat": 36.964500427199994, "lon": -86.41970062259999, "elev_ft": 547, "type": "medium_airport"}, {"icao": "KBWI", "iata": "BWI", "name": "Baltimore/Washington International Thurgood Marshall Airport", "lat": 39.1754, "lon": -76.668297, "elev_ft": 146, "type": "large_airport"}, {"icao": "KBXM", "iata": "NHZ", "name": "Brunswick Executive Airport", "lat": 43.89220047, "lon": -69.93859863, "elev_ft": 72, "type": "medium_airport"}, {"icao": "KBYH", "iata": "BYH", "name": "Arkansas International Airport", "lat": 35.9642982483, "lon": -89.94400024410001, "elev_ft": 254, "type": "medium_airport"}, {"icao": "KBYI", "iata": "BYI", "name": "Burley Municipal Airport", "lat": 42.542598724399994, "lon": -113.772003174, "elev_ft": 4150, "type": "medium_airport"}, {"icao": "KBYS", "iata": "BYS", "name": "Bicycle Lake Army Air Field", "lat": 35.2804985046, "lon": -116.629997253, "elev_ft": 2350, "type": "medium_airport"}, {"icao": "KBZN", "iata": "BZN", "name": "Bozeman Yellowstone International Airport", "lat": 45.778853, "lon": -111.153711, "elev_ft": 4473, "type": "medium_airport"}, {"icao": "KCAE", "iata": "CAE", "name": "Columbia Metropolitan Airport", "lat": 33.938172, "lon": -81.123022, "elev_ft": 236, "type": "medium_airport"}, {"icao": "KCAK", "iata": "CAK", "name": "Akron Canton Regional Airport", "lat": 40.916099548339844, "lon": -81.44219970703125, "elev_ft": 1228, "type": "medium_airport"}, {"icao": "KCAR", "iata": "CAR", "name": "Caribou Municipal Airport", "lat": 46.871498, "lon": -68.017899, "elev_ft": 626, "type": "medium_airport"}, {"icao": "KCBM", "iata": "CBM", "name": "Columbus Air Force Base", "lat": 33.643799, "lon": -88.443802, "elev_ft": 219, "type": "medium_airport"}, {"icao": "KCCR", "iata": "CCR", "name": "Buchanan Field", "lat": 37.9897, "lon": -122.056999, "elev_ft": 26, "type": "medium_airport"}, {"icao": "KCCY", "iata": "CCY", "name": "Northeast Iowa Regional Airport", "lat": 43.0726013184, "lon": -92.6108016968, "elev_ft": 1125, "type": "medium_airport"}, {"icao": "KCDC", "iata": "CDC", "name": "Cedar City Regional Airport", "lat": 37.70100021362305, "lon": -113.0989990234375, "elev_ft": 5622, "type": "medium_airport"}, {"icao": "KCDR", "iata": "CDR", "name": "Chadron Municipal Airport", "lat": 42.837601, "lon": -103.095001, "elev_ft": 3297, "type": "medium_airport"}, {"icao": "KCDS", "iata": "CDS", "name": "Childress Municipal Airport", "lat": 34.4337997437, "lon": -100.288002014, "elev_ft": 1954, "type": "medium_airport"}, {"icao": "KCEC", "iata": "CEC", "name": "Jack Mc Namara Field Airport", "lat": 41.778929, "lon": -124.236403, "elev_ft": 61, "type": "medium_airport"}, {"icao": "KCEF", "iata": "CEF", "name": "Westover Metropolitan Airport / Westover Air Reserve Base", "lat": 42.194, "lon": -72.534798, "elev_ft": 241, "type": "medium_airport"}, {"icao": "KCEW", "iata": "CEW", "name": "Bob Sikes Airport", "lat": 30.778799057, "lon": -86.522102356, "elev_ft": 213, "type": "medium_airport"}, {"icao": "KCEZ", "iata": "CEZ", "name": "Cortez Municipal Airport", "lat": 37.303001, "lon": -108.627998, "elev_ft": 5918, "type": "medium_airport"}, {"icao": "KCGF", "iata": "CGF", "name": "Cuyahoga County Airport", "lat": 41.5651016235, "lon": -81.4863967896, "elev_ft": 879, "type": "medium_airport"}, {"icao": "KCGI", "iata": "CGI", "name": "Cape Girardeau Regional Airport", "lat": 37.2253, "lon": -89.570801, "elev_ft": 342, "type": "medium_airport"}, {"icao": "KCHA", "iata": "CHA", "name": "Chattanooga Metropolitan Airport (Lovell Field)", "lat": 35.035301, "lon": -85.203796, "elev_ft": 683, "type": "medium_airport"}, {"icao": "KCHO", "iata": "CHO", "name": "Charlottesville Albemarle Airport", "lat": 38.13859939575195, "lon": -78.4529037475586, "elev_ft": 639, "type": "medium_airport"}, {"icao": "KCHS", "iata": "CHS", "name": "Charleston International Airport", "lat": 32.896159, "lon": -80.038151, "elev_ft": 46, "type": "large_airport"}, {"icao": "KCID", "iata": "CID", "name": "The Eastern Iowa Airport", "lat": 41.884701, "lon": -91.7108, "elev_ft": 869, "type": "medium_airport"}, {"icao": "KCIU", "iata": "CIU", "name": "Chippewa County International Airport", "lat": 46.242038, "lon": -84.462082, "elev_ft": 800, "type": "medium_airport"}, {"icao": "KCKB", "iata": "CKB", "name": "North Central West Virginia Airport", "lat": 39.2966, "lon": -80.228104, "elev_ft": 1217, "type": "medium_airport"}, {"icao": "KCLE", "iata": "CLE", "name": "Cleveland Hopkins International Airport", "lat": 41.411701, "lon": -81.8498, "elev_ft": 791, "type": "large_airport"}, {"icao": "KCLL", "iata": "CLL", "name": "Easterwood Field", "lat": 30.5886, "lon": -96.3638, "elev_ft": 320, "type": "medium_airport"}, {"icao": "KCLM", "iata": "CLM", "name": "William R Fairchild International Airport", "lat": 48.120201, "lon": -123.5, "elev_ft": 291, "type": "medium_airport"}, {"icao": "KCLT", "iata": "CLT", "name": "Charlotte Douglas International Airport", "lat": 35.2140007019043, "lon": -80.94309997558594, "elev_ft": 748, "type": "large_airport"}, {"icao": "KCMH", "iata": "CMH", "name": "John Glenn Columbus International Airport", "lat": 39.998001, "lon": -82.891899, "elev_ft": 815, "type": "large_airport"}, {"icao": "KCMI", "iata": "CMI", "name": "University of Illinois Willard Airport", "lat": 40.039819, "lon": -88.276249, "elev_ft": 755, "type": "medium_airport"}, {"icao": "KCMX", "iata": "CMX", "name": "Houghton County Memorial Airport", "lat": 47.168399810791016, "lon": -88.48909759521484, "elev_ft": 1095, "type": "medium_airport"}, {"icao": "KCNM", "iata": "CNM", "name": "Cavern City Air Terminal", "lat": 32.337501525878906, "lon": -104.26300048828125, "elev_ft": 3295, "type": "medium_airport"}, {"icao": "KCNU", "iata": "CNU", "name": "Chanute Martin Johnson Airport", "lat": 37.668173, "lon": -95.486727, "elev_ft": 1002, "type": "medium_airport"}, {"icao": "KCNY", "iata": "CNY", "name": "Canyonlands Regional Airport", "lat": 38.755001, "lon": -109.754997, "elev_ft": 4557, "type": "medium_airport"}, {"icao": "KCOD", "iata": "COD", "name": "Yellowstone Regional Airport", "lat": 44.520199, "lon": -109.024002, "elev_ft": 5102, "type": "medium_airport"}, {"icao": "KCOE", "iata": "COE", "name": "Coeur D'Alene Airport - Pappy Boyington Field", "lat": 47.7743, "lon": -116.82, "elev_ft": 2320, "type": "medium_airport"}, {"icao": "KCOF", "iata": "COF", "name": "Patrick Space Force Base", "lat": 28.2349, "lon": -80.6101, "elev_ft": 8, "type": "medium_airport"}, {"icao": "KCON", "iata": "CON", "name": "Concord Municipal Airport", "lat": 43.20270157, "lon": -71.50229645, "elev_ft": 342, "type": "medium_airport"}, {"icao": "KCOS", "iata": "COS", "name": "City of Colorado Springs Municipal Airport", "lat": 38.805801, "lon": -104.700996, "elev_ft": 6187, "type": "large_airport"}, {"icao": "KCOU", "iata": "COU", "name": "Columbia Regional Airport", "lat": 38.8181, "lon": -92.219597, "elev_ft": 889, "type": "medium_airport"}, {"icao": "KCPR", "iata": "CPR", "name": "Casper-Natrona County International Airport", "lat": 42.907381, "lon": -106.461609, "elev_ft": 5350, "type": "medium_airport"}, {"icao": "KCRE", "iata": "CRE", "name": "Grand Strand Airport", "lat": 33.8116989136, "lon": -78.72389984130001, "elev_ft": 32, "type": "medium_airport"}, {"icao": "KCRG", "iata": "CRG", "name": "Jacksonville Executive at Craig Airport", "lat": 30.3362998962, "lon": -81.51439666750001, "elev_ft": 41, "type": "medium_airport"}, {"icao": "KCRP", "iata": "CRP", "name": "Corpus Christi International Airport", "lat": 27.770399, "lon": -97.501198, "elev_ft": 44, "type": "medium_airport"}, {"icao": "KCRQ", "iata": "CLD", "name": "McClellan-Palomar Airport", "lat": 33.1283, "lon": -117.279999, "elev_ft": 331, "type": "medium_airport"}, {"icao": "KCRW", "iata": "CRW", "name": "Yeager Airport", "lat": 38.3731, "lon": -81.593201, "elev_ft": 981, "type": "medium_airport"}, {"icao": "KCSG", "iata": "CSG", "name": "Columbus Airport", "lat": 32.516415, "lon": -84.939602, "elev_ft": 397, "type": "medium_airport"}, {"icao": "KCSV", "iata": "CSV", "name": "Crossville Memorial Airport Whitson Field", "lat": 35.95131, "lon": -85.08499, "elev_ft": 1881, "type": "medium_airport"}, {"icao": "KCTB", "iata": "CTB", "name": "Cut Bank International Airport", "lat": 48.608657, "lon": -112.378183, "elev_ft": 3854, "type": "medium_airport"}, {"icao": "KCUB", "iata": "CUB", "name": "Jim Hamilton L.B. Owens Airport", "lat": 33.970500946, "lon": -80.9952011108, "elev_ft": 193, "type": "medium_airport"}, {"icao": "KCVG", "iata": "CVG", "name": "Cincinnati Northern Kentucky International Airport", "lat": 39.048801, "lon": -84.667801, "elev_ft": 896, "type": "large_airport"}, {"icao": "KCVN", "iata": "CVN", "name": "Clovis Municipal Airport", "lat": 34.426594, "lon": -103.078794, "elev_ft": 4216, "type": "medium_airport"}, {"icao": "KCVO", "iata": "CVO", "name": "Corvallis Municipal Airport", "lat": 44.49720001, "lon": -123.2900009, "elev_ft": 250, "type": "medium_airport"}, {"icao": "KCVS", "iata": "CVS", "name": "Cannon Air Force Base", "lat": 34.382801, "lon": -103.321999, "elev_ft": 4295, "type": "medium_airport"}, {"icao": "KCWA", "iata": "CWA", "name": "Central Wisconsin Airport", "lat": 44.777448, "lon": -89.670238, "elev_ft": 1277, "type": "medium_airport"}, {"icao": "KCXO", "iata": "CXO", "name": "Conroe-North Houston Regional Airport", "lat": 30.351801, "lon": -95.414497, "elev_ft": 245, "type": "medium_airport"}, {"icao": "KCXP", "iata": "CSN", "name": "Carson Airport", "lat": 39.194331, "lon": -119.734312, "elev_ft": 4697, "type": "medium_airport"}, {"icao": "KCYS", "iata": "CYS", "name": "Cheyenne Regional Jerry Olson Field", "lat": 41.155701, "lon": -104.811997, "elev_ft": 6159, "type": "medium_airport"}, {"icao": "KDAA", "iata": "DAA", "name": "Davison Army Air Field", "lat": 38.715000152600005, "lon": -77.1809997559, "elev_ft": 73, "type": "medium_airport"}, {"icao": "KDAB", "iata": "DAB", "name": "Daytona Beach International Airport", "lat": 29.18255, "lon": -81.059464, "elev_ft": 34, "type": "medium_airport"}, {"icao": "KDAG", "iata": "DAG", "name": "Barstow Daggett Airport", "lat": 34.85369873, "lon": -116.7870026, "elev_ft": 1930, "type": "medium_airport"}, {"icao": "KDAL", "iata": "DAL", "name": "Dallas Love Field", "lat": 32.844776, "lon": -96.847653, "elev_ft": 487, "type": "large_airport"}, {"icao": "KDAN", "iata": "DAN", "name": "Danville Regional Airport", "lat": 36.572899, "lon": -79.336098, "elev_ft": 571, "type": "medium_airport"}, {"icao": "KDAY", "iata": "DAY", "name": "James M. Cox Dayton International Airport", "lat": 39.902401, "lon": -84.219398, "elev_ft": 1009, "type": "medium_airport"}, {"icao": "KDBQ", "iata": "DBQ", "name": "Dubuque Regional Airport", "lat": 42.402, "lon": -90.709503, "elev_ft": 1077, "type": "medium_airport"}, {"icao": "KDCA", "iata": "DCA", "name": "Ronald Reagan Washington National Airport", "lat": 38.8521, "lon": -77.037697, "elev_ft": 15, "type": "large_airport"}, {"icao": "KDDC", "iata": "DDC", "name": "Dodge City Regional Airport", "lat": 37.76340103149414, "lon": -99.9655990600586, "elev_ft": 2594, "type": "medium_airport"}, {"icao": "KDEC", "iata": "DEC", "name": "Decatur Airport", "lat": 39.834598541259766, "lon": -88.8656997680664, "elev_ft": 682, "type": "medium_airport"}, {"icao": "KDEN", "iata": "DEN", "name": "Denver International Airport", "lat": 39.860027, "lon": -104.673792, "elev_ft": 5431, "type": "large_airport"}, {"icao": "KDET", "iata": "DET", "name": "Coleman A. Young Municipal Airport", "lat": 42.40919876, "lon": -83.00990295, "elev_ft": 626, "type": "medium_airport"}, {"icao": "KDFW", "iata": "DFW", "name": "Dallas Fort Worth International Airport", "lat": 32.896801, "lon": -97.038002, "elev_ft": 607, "type": "large_airport"}, {"icao": "KDHN", "iata": "DHN", "name": "Dothan Regional Airport", "lat": 31.321300506591797, "lon": -85.44960021972656, "elev_ft": 401, "type": "medium_airport"}, {"icao": "KDHT", "iata": "DHT", "name": "Dalhart Municipal Airport", "lat": 36.0225982666, "lon": -102.54699707, "elev_ft": 3991, "type": "medium_airport"}, {"icao": "KDIK", "iata": "DIK", "name": "Dickinson Theodore Roosevelt Regional Airport", "lat": 46.797533, "lon": -102.801905, "elev_ft": 2592, "type": "medium_airport"}, {"icao": "KDLF", "iata": "DLF", "name": "Laughlin Air Force Base", "lat": 29.359501, "lon": -100.778002, "elev_ft": 1082, "type": "medium_airport"}, {"icao": "KDLH", "iata": "DLH", "name": "Duluth International Airport", "lat": 46.841873, "lon": -92.198746, "elev_ft": 1428, "type": "medium_airport"}, {"icao": "KDLS", "iata": "DLS", "name": "Columbia Gorge Regional Airport", "lat": 45.620979, "lon": -121.170777, "elev_ft": 247, "type": "medium_airport"}, {"icao": "KDMA", "iata": "DMA", "name": "Davis Monthan Air Force Base", "lat": 32.1665000916, "lon": -110.883003235, "elev_ft": 2704, "type": "medium_airport"}, {"icao": "KDMN", "iata": "DMN", "name": "Deming Municipal Airport", "lat": 32.262298584, "lon": -107.721000671, "elev_ft": 4314, "type": "medium_airport"}, {"icao": "KDNL", "iata": "DNL", "name": "Daniel Field", "lat": 33.4664993286, "lon": -82.0393981934, "elev_ft": 423, "type": "medium_airport"}, {"icao": "KDOV", "iata": "DOV", "name": "Dover Civil Air Terminal/Dover Air Force Base", "lat": 39.129501, "lon": -75.466003, "elev_ft": 24, "type": "medium_airport"}, {"icao": "KDPA", "iata": "DPA", "name": "Dupage Airport", "lat": 41.90779877, "lon": -88.24859619, "elev_ft": 759, "type": "medium_airport"}, {"icao": "KDRA", "iata": "DRA", "name": "Desert Rock Airport", "lat": 36.6194, "lon": -116.032997, "elev_ft": 3314, "type": "medium_airport"}, {"icao": "KDRI", "iata": "DRI", "name": "Beauregard Regional Airport", "lat": 30.831699, "lon": -93.339897, "elev_ft": 202, "type": "medium_airport"}, {"icao": "KDRO", "iata": "DRO", "name": "Durango La Plata County Airport", "lat": 37.151501, "lon": -107.753998, "elev_ft": 6685, "type": "medium_airport"}, {"icao": "KDRT", "iata": "DRT", "name": "Del Rio International Airport", "lat": 29.3742008209, "lon": -100.927001953, "elev_ft": 1002, "type": "medium_airport"}, {"icao": "KDSM", "iata": "DSM", "name": "Des Moines International Airport", "lat": 41.534027, "lon": -93.656719, "elev_ft": 958, "type": "large_airport"}, {"icao": "KDTS", "iata": "DSI", "name": "Destin Executive Airport", "lat": 30.400101, "lon": -86.471497, "elev_ft": 23, "type": "medium_airport"}, {"icao": "KDTW", "iata": "DTW", "name": "Detroit Metropolitan Wayne County Airport", "lat": 42.21377, "lon": -83.353786, "elev_ft": 645, "type": "large_airport"}, {"icao": "KDUA", "iata": "DUA", "name": "Durant Regional Airport - Eaker Field", "lat": 33.939675, "lon": -96.395072, "elev_ft": 699, "type": "medium_airport"}, {"icao": "KDUG", "iata": "DUG", "name": "Bisbee Douglas International Airport", "lat": 31.464139, "lon": -109.60456, "elev_ft": 4154, "type": "medium_airport"}, {"icao": "KDUJ", "iata": "DUJ", "name": "DuBois Regional Airport", "lat": 41.17829895, "lon": -78.8986969, "elev_ft": 1817, "type": "medium_airport"}, {"icao": "KDVL", "iata": "DVL", "name": "Devils Lake Regional Airport", "lat": 48.115454, "lon": -98.908796, "elev_ft": 1456, "type": "medium_airport"}, {"icao": "KDXR", "iata": "DXR", "name": "Danbury Municipal Airport", "lat": 41.371656, "lon": -73.482227, "elev_ft": 458, "type": "medium_airport"}, {"icao": "KDYS", "iata": "DYS", "name": "Dyess Air Force Base", "lat": 32.420799, "lon": -99.854599, "elev_ft": 1789, "type": "medium_airport"}, {"icao": "KEAR", "iata": "EAR", "name": "Kearney Regional Airport", "lat": 40.727001, "lon": -99.006798, "elev_ft": 2131, "type": "medium_airport"}, {"icao": "KEAT", "iata": "EAT", "name": "Pangborn Memorial Airport", "lat": 47.398899, "lon": -120.207001, "elev_ft": 1249, "type": "medium_airport"}, {"icao": "KEAU", "iata": "EAU", "name": "Chippewa Valley Regional Airport", "lat": 44.86579895019531, "lon": -91.48429870605469, "elev_ft": 913, "type": "medium_airport"}, {"icao": "KECG", "iata": "ECG", "name": "Elizabeth City Regional Airport & Coast Guard Air Station", "lat": 36.260601, "lon": -76.174599, "elev_ft": 11, "type": "medium_airport"}, {"icao": "KECP", "iata": "ECP", "name": "Northwest Florida Beaches International Airport", "lat": 30.357106, "lon": -85.795414, "elev_ft": 69, "type": "medium_airport"}, {"icao": "KEDW", "iata": "EDW", "name": "Edwards Air Force Base", "lat": 34.910781, "lon": -117.886391, "elev_ft": 2312, "type": "medium_airport"}, {"icao": "KEED", "iata": "EED", "name": "Needles Airport", "lat": 34.7663002014, "lon": -114.623001099, "elev_ft": 983, "type": "medium_airport"}, {"icao": "KEEN", "iata": "EEN", "name": "Dillant Hopkins Airport", "lat": 42.898399, "lon": -72.270798, "elev_ft": 488, "type": "medium_airport"}, {"icao": "KEFD", "iata": "EFD", "name": "Ellington Airport", "lat": 29.607299804700002, "lon": -95.1587982178, "elev_ft": 32, "type": "medium_airport"}, {"icao": "KEGE", "iata": "EGE", "name": "Eagle County Regional Airport", "lat": 39.64260101, "lon": -106.9179993, "elev_ft": 6548, "type": "medium_airport"}, {"icao": "KEGI", "iata": "EGI", "name": "Duke Field", "lat": 30.65040016, "lon": -86.52290344, "elev_ft": 191, "type": "medium_airport"}, {"icao": "KEKA", "iata": "EKA", "name": "Murray Field", "lat": 40.803398, "lon": -124.112999, "elev_ft": 7, "type": "medium_airport"}, {"icao": "KEKN", "iata": "EKN", "name": "Elkins-Randolph County Regional Airport", "lat": 38.889759, "lon": -79.857651, "elev_ft": 1987, "type": "medium_airport"}, {"icao": "KEKO", "iata": "EKO", "name": "Elko Regional Airport", "lat": 40.82490158081055, "lon": -115.79199981689453, "elev_ft": 5140, "type": "medium_airport"}, {"icao": "KELD", "iata": "ELD", "name": "South Arkansas Regional Airport at Goodwin Field", "lat": 33.221001, "lon": -92.813301, "elev_ft": 277, "type": "medium_airport"}, {"icao": "KELM", "iata": "ELM", "name": "Elmira Corning Regional Airport", "lat": 42.1599006652832, "lon": -76.8916015625, "elev_ft": 954, "type": "medium_airport"}, {"icao": "KELO", "iata": "LYU", "name": "Ely Municipal Airport", "lat": 47.82450104, "lon": -91.83070374, "elev_ft": 1456, "type": "medium_airport"}, {"icao": "KELP", "iata": "ELP", "name": "El Paso International Airport", "lat": 31.809908, "lon": -106.375607, "elev_ft": 3959, "type": "large_airport"}, {"icao": "KELY", "iata": "ELY", "name": "Ely Airport Yelland Field", "lat": 39.29970169, "lon": -114.8420029, "elev_ft": 6259, "type": "medium_airport"}, {"icao": "KEND", "iata": "END", "name": "Vance Air Force Base", "lat": 36.339199, "lon": -97.916496, "elev_ft": 1307, "type": "medium_airport"}, {"icao": "KENV", "iata": "ENV", "name": "Wendover Airport", "lat": 40.7187004089, "lon": -114.03099823, "elev_ft": 4237, "type": "medium_airport"}, {"icao": "KENW", "iata": "ENW", "name": "Kenosha Regional Airport", "lat": 42.59569931, "lon": -87.92780304, "elev_ft": 742, "type": "medium_airport"}, {"icao": "KERI", "iata": "ERI", "name": "Erie International Tom Ridge Field", "lat": 42.083127, "lon": -80.173867, "elev_ft": 732, "type": "medium_airport"}, {"icao": "KESC", "iata": "ESC", "name": "Delta County Airport", "lat": 45.723199, "lon": -87.088623, "elev_ft": 609, "type": "medium_airport"}, {"icao": "KESF", "iata": "ESF", "name": "Esler Army Airfield / Esler Regional Airport", "lat": 31.394266, "lon": -92.294082, "elev_ft": 112, "type": "medium_airport"}, {"icao": "KEUG", "iata": "EUG", "name": "Eugene Airport", "lat": 44.124599, "lon": -123.211998, "elev_ft": 374, "type": "medium_airport"}, {"icao": "KEVV", "iata": "EVV", "name": "Evansville Regional Airport", "lat": 38.0369987488, "lon": -87.5324020386, "elev_ft": 418, "type": "medium_airport"}, {"icao": "KEVW", "iata": "EVW", "name": "Evanston-Uinta County Airport-Burns Field", "lat": 41.27479935, "lon": -111.0350037, "elev_ft": 7143, "type": "medium_airport"}, {"icao": "KEWB", "iata": "EWB", "name": "New Bedford Regional Airport", "lat": 41.67610168457031, "lon": -70.95690155029297, "elev_ft": 80, "type": "medium_airport"}, {"icao": "KEWN", "iata": "EWN", "name": "Coastal Carolina Regional Airport", "lat": 35.0730018616, "lon": -77.04290008539999, "elev_ft": 18, "type": "medium_airport"}, {"icao": "KEWR", "iata": "EWR", "name": "Newark Liberty International Airport", "lat": 40.6894, "lon": -74.170545, "elev_ft": 18, "type": "large_airport"}, {"icao": "KEYW", "iata": "EYW", "name": "Key West International Airport", "lat": 24.556119, "lon": -81.759579, "elev_ft": 3, "type": "medium_airport"}, {"icao": "KFAF", "iata": "FAF", "name": "Felker Army Air Field", "lat": 37.1325, "lon": -76.608803, "elev_ft": 12, "type": "medium_airport"}, {"icao": "KFAR", "iata": "FAR", "name": "Hector International Airport", "lat": 46.9207, "lon": -96.815804, "elev_ft": 902, "type": "medium_airport"}, {"icao": "KFAT", "iata": "FAT", "name": "Fresno Yosemite International Airport", "lat": 36.775767, "lon": -119.718018, "elev_ft": 336, "type": "large_airport"}, {"icao": "KFAY", "iata": "FAY", "name": "Fayetteville Regional Airport - Grannis Field", "lat": 34.991199, "lon": -78.880302, "elev_ft": 189, "type": "medium_airport"}, {"icao": "KFBG", "iata": "FBG", "name": "Simmons Army Air Field", "lat": 35.13180161, "lon": -78.93669891, "elev_ft": 244, "type": "medium_airport"}, {"icao": "KFCS", "iata": "FCS", "name": "Butts AAF (Fort Carson) Air Field", "lat": 38.67839813, "lon": -104.7570038, "elev_ft": 5838, "type": "medium_airport"}, {"icao": "KFDY", "iata": "FDY", "name": "Findlay Airport", "lat": 41.013500213600004, "lon": -83.66870117190001, "elev_ft": 813, "type": "medium_airport"}, {"icao": "KFFO", "iata": "FFO", "name": "Wright-Patterson Air Force Base", "lat": 39.826099, "lon": -84.048302, "elev_ft": 823, "type": "medium_airport"}, {"icao": "KFHR", "iata": "FRD", "name": "Friday Harbor Airport", "lat": 48.523654, "lon": -123.024645, "elev_ft": 113, "type": "medium_airport"}, {"icao": "KFHU", "iata": "FHU", "name": "Sierra Vista Municipal Airport / Libby Army Air Field", "lat": 31.587383, "lon": -110.348225, "elev_ft": 4719, "type": "medium_airport"}, {"icao": "KFKL", "iata": "FKL", "name": "Venango Regional Airport", "lat": 41.3778991699, "lon": -79.8603973389, "elev_ft": 1540, "type": "medium_airport"}, {"icao": "KFLG", "iata": "FLG", "name": "Flagstaff Pulliam Airport", "lat": 35.139757, "lon": -111.669826, "elev_ft": 7014, "type": "medium_airport"}, {"icao": "KFLL", "iata": "FLL", "name": "Fort Lauderdale Hollywood International Airport", "lat": 26.072599, "lon": -80.152702, "elev_ft": 9, "type": "large_airport"}, {"icao": "KFLO", "iata": "FLO", "name": "Florence Regional Airport", "lat": 34.18539810180664, "lon": -79.7238998413086, "elev_ft": 146, "type": "medium_airport"}, {"icao": "KFME", "iata": "FME", "name": "Fort Meade Executive Airport", "lat": 39.0854, "lon": -76.759399, "elev_ft": 150, "type": "medium_airport"}, {"icao": "KFMN", "iata": "FMN", "name": "Four Corners Regional Airport", "lat": 36.741199, "lon": -108.230003, "elev_ft": 5506, "type": "medium_airport"}, {"icao": "KFMY", "iata": "FMY", "name": "Page Field", "lat": 26.58659935, "lon": -81.86329650879999, "elev_ft": 17, "type": "medium_airport"}, {"icao": "KFNL", "iata": "FNL", "name": "Northern Colorado Regional Airport", "lat": 40.44969, "lon": -105.011272, "elev_ft": 5016, "type": "medium_airport"}, {"icao": "KFNT", "iata": "FNT", "name": "Bishop International Airport", "lat": 42.969294, "lon": -83.743355, "elev_ft": 782, "type": "medium_airport"}, {"icao": "KFOD", "iata": "FOD", "name": "Fort Dodge Regional Airport", "lat": 42.552624, "lon": -94.191237, "elev_ft": 1156, "type": "medium_airport"}, {"icao": "KFOE", "iata": "FOE", "name": "Topeka Regional Airport", "lat": 38.950901, "lon": -95.663597, "elev_ft": 1078, "type": "medium_airport"}, {"icao": "KFPR", "iata": "FPR", "name": "Treasure Coast International Airport", "lat": 27.4951, "lon": -80.368301, "elev_ft": 24, "type": "medium_airport"}, {"icao": "KFRG", "iata": "FRG", "name": "Republic Airport", "lat": 40.728576, "lon": -73.414267, "elev_ft": 82, "type": "medium_airport"}, {"icao": "KFRI", "iata": "FRI", "name": "Marshall Army Air Field", "lat": 39.053021, "lon": -96.764202, "elev_ft": 1065, "type": "medium_airport"}, {"icao": "KFSD", "iata": "FSD", "name": "Sioux Falls Regional Airport", "lat": 43.585463, "lon": -96.741152, "elev_ft": 1429, "type": "medium_airport"}, {"icao": "KFSI", "iata": "FSI", "name": "Henry Post Army Air Field", "lat": 34.649799, "lon": -98.402199, "elev_ft": 1189, "type": "medium_airport"}, {"icao": "KFSM", "iata": "FSM", "name": "Fort Smith Regional Airport", "lat": 35.336601, "lon": -94.367401, "elev_ft": 469, "type": "medium_airport"}, {"icao": "KFST", "iata": "FST", "name": "Fort Stockton Pecos County Airport", "lat": 30.9157009125, "lon": -102.916000366, "elev_ft": 3011, "type": "medium_airport"}, {"icao": "KFTK", "iata": "FTK", "name": "Godman Army Air Field", "lat": 37.907100677500004, "lon": -85.9720993042, "elev_ft": 756, "type": "medium_airport"}, {"icao": "KFTW", "iata": "FTW", "name": "Fort Worth Meacham International Airport", "lat": 32.819919, "lon": -97.360818, "elev_ft": 710, "type": "medium_airport"}, {"icao": "KFTY", "iata": "FTY", "name": "Fulton County Airport Brown Field", "lat": 33.7790985107, "lon": -84.5214004517, "elev_ft": 841, "type": "medium_airport"}, {"icao": "KFWA", "iata": "FWA", "name": "Fort Wayne International Airport", "lat": 40.978896, "lon": -85.194465, "elev_ft": 814, "type": "medium_airport"}, {"icao": "KFXE", "iata": "FXE", "name": "Fort Lauderdale Executive Airport", "lat": 26.1972999573, "lon": -80.1707000732, "elev_ft": 13, "type": "medium_airport"}, {"icao": "KFYV", "iata": "FYV", "name": "Drake Field", "lat": 36.00510025024414, "lon": -94.17009735107422, "elev_ft": 1251, "type": "medium_airport"}, {"icao": "KGCC", "iata": "GCC", "name": "Northeast Wyoming Regional Airport", "lat": 44.3489, "lon": -105.539001, "elev_ft": 4365, "type": "medium_airport"}, {"icao": "KGCK", "iata": "GCK", "name": "Garden City Regional Airport", "lat": 37.9275016785, "lon": -100.723999023, "elev_ft": 2891, "type": "medium_airport"}, {"icao": "KGCN", "iata": "GCN", "name": "Grand Canyon National Park Airport", "lat": 35.9524, "lon": -112.147003, "elev_ft": 6609, "type": "medium_airport"}, {"icao": "KGDV", "iata": "GDV", "name": "Dawson Community Airport", "lat": 47.137658, "lon": -104.80691, "elev_ft": 2458, "type": "medium_airport"}, {"icao": "KGEG", "iata": "GEG", "name": "Spokane International Airport", "lat": 47.6199, "lon": -117.533997, "elev_ft": 2376, "type": "large_airport"}, {"icao": "KGFK", "iata": "GFK", "name": "Grand Forks International Airport", "lat": 47.949299, "lon": -97.176102, "elev_ft": 845, "type": "medium_airport"}, {"icao": "KGFL", "iata": "GFL", "name": "Floyd Bennett Memorial Airport", "lat": 43.3412017822, "lon": -73.6102981567, "elev_ft": 328, "type": "medium_airport"}, {"icao": "KGGG", "iata": "GGG", "name": "East Texas Regional Airport", "lat": 32.38399887084961, "lon": -94.71150207519531, "elev_ft": 365, "type": "medium_airport"}, {"icao": "KGGW", "iata": "GGW", "name": "Glasgow Valley County Airport Wokal Field", "lat": 48.212502, "lon": -106.614998, "elev_ft": 2296, "type": "medium_airport"}, {"icao": "KGJT", "iata": "GJT", "name": "Grand Junction Regional Airport", "lat": 39.126663, "lon": -108.529387, "elev_ft": 4858, "type": "medium_airport"}, {"icao": "KGLD", "iata": "GLD", "name": "Goodland Municipal Airport", "lat": 39.370701, "lon": -101.699753, "elev_ft": 3656, "type": "medium_airport"}, {"icao": "KGLH", "iata": "GLH", "name": "Mid Delta Regional Airport", "lat": 33.482899, "lon": -90.985603, "elev_ft": 131, "type": "medium_airport"}, {"icao": "KGLS", "iata": "GLS", "name": "Scholes International At Galveston Airport", "lat": 29.265301, "lon": -94.860397, "elev_ft": 6, "type": "medium_airport"}, {"icao": "KGMU", "iata": "GMU", "name": "Greenville Downtown Airport", "lat": 34.847903, "lon": -82.350217, "elev_ft": 1048, "type": "medium_airport"}, {"icao": "KGNV", "iata": "GNV", "name": "Gainesville Regional Airport", "lat": 29.6900997162, "lon": -82.2717971802, "elev_ft": 152, "type": "medium_airport"}, {"icao": "KGON", "iata": "GON", "name": "Groton New London Airport", "lat": 41.330101, "lon": -72.045097, "elev_ft": 9, "type": "medium_airport"}, {"icao": "KGPI", "iata": "FCA", "name": "Glacier Park International Airport", "lat": 48.310501, "lon": -114.255997, "elev_ft": 2977, "type": "medium_airport"}, {"icao": "KGPT", "iata": "GPT", "name": "Gulfport Biloxi International Airport", "lat": 30.405582, "lon": -89.069836, "elev_ft": 28, "type": "medium_airport"}, {"icao": "KGRB", "iata": "GRB", "name": "Austin Straubel International Airport", "lat": 44.483459, "lon": -88.130805, "elev_ft": 695, "type": "medium_airport"}, {"icao": "KGRF", "iata": "GRF", "name": "Gray Army Air Field", "lat": 47.07920074, "lon": -122.5810013, "elev_ft": 300, "type": "medium_airport"}, {"icao": "KGRI", "iata": "GRI", "name": "Central Nebraska Regional Airport", "lat": 40.967498779296875, "lon": -98.30960083007812, "elev_ft": 1847, "type": "medium_airport"}, {"icao": "KGRK", "iata": "GRK", "name": "Killeen Regional Airport / Robert Gray Army Airfield", "lat": 31.0672, "lon": -97.828903, "elev_ft": 1015, "type": "medium_airport"}, {"icao": "KGRR", "iata": "GRR", "name": "Gerald R. Ford International Airport", "lat": 42.880798, "lon": -85.522797, "elev_ft": 794, "type": "large_airport"}, {"icao": "KGSB", "iata": "GSB", "name": "Seymour Johnson Air Force Base", "lat": 35.339401, "lon": -77.960602, "elev_ft": 109, "type": "medium_airport"}, {"icao": "KGSO", "iata": "GSO", "name": "Piedmont Triad International Airport", "lat": 36.09937, "lon": -79.937262, "elev_ft": 925, "type": "large_airport"}, {"icao": "KGSP", "iata": "GSP", "name": "Greenville-Spartanburg International Airport", "lat": 34.895699, "lon": -82.218903, "elev_ft": 964, "type": "medium_airport"}, {"icao": "KGTF", "iata": "GTF", "name": "Great Falls International Airport", "lat": 47.481998, "lon": -111.371002, "elev_ft": 3680, "type": "medium_airport"}, {"icao": "KGTR", "iata": "GTR", "name": "Golden Triangle Regional Airport", "lat": 33.450298, "lon": -88.5914, "elev_ft": 264, "type": "medium_airport"}, {"icao": "KGUC", "iata": "GUC", "name": "Gunnison Crested Butte Regional Airport", "lat": 38.534672, "lon": -106.934566, "elev_ft": 7680, "type": "medium_airport"}, {"icao": "KGUP", "iata": "GUP", "name": "Gallup Municipal Airport", "lat": 35.511653, "lon": -108.788166, "elev_ft": 6472, "type": "medium_airport"}, {"icao": "KGUS", "iata": "GUS", "name": "Grissom Air Reserve Base", "lat": 40.648102, "lon": -86.1521, "elev_ft": 812, "type": "medium_airport"}, {"icao": "KGUY", "iata": "GUY", "name": "Guymon Municipal Airport", "lat": 36.6851005554, "lon": -101.508003235, "elev_ft": 3123, "type": "medium_airport"}, {"icao": "KGWO", "iata": "GWO", "name": "Greenwood\u2013Leflore Airport", "lat": 33.495025, "lon": -90.088204, "elev_ft": 162, "type": "medium_airport"}, {"icao": "KGYI", "iata": "PNX", "name": "North Texas Regional Airport Perrin Field", "lat": 33.7141, "lon": -96.673698, "elev_ft": 749, "type": "medium_airport"}, {"icao": "KGYY", "iata": "GYY", "name": "Gary/Chicago International Airport", "lat": 41.617087, "lon": -87.413206, "elev_ft": 591, "type": "medium_airport"}, {"icao": "KHBG", "iata": "HBG", "name": "Hattiesburg Bobby L Chain Municipal Airport", "lat": 31.26479912, "lon": -89.25279999, "elev_ft": 151, "type": "medium_airport"}, {"icao": "KHBR", "iata": "HBR", "name": "Hobart Regional Airport", "lat": 34.991317, "lon": -99.051313, "elev_ft": 1563, "type": "medium_airport"}, {"icao": "KHDN", "iata": "HDN", "name": "Yampa Valley Airport", "lat": 40.481201, "lon": -107.218002, "elev_ft": 6606, "type": "medium_airport"}, {"icao": "KHEF", "iata": "MNZ", "name": "Manassas Regional Airport/Harry P. Davis Field", "lat": 38.721401, "lon": -77.515404, "elev_ft": 192, "type": "medium_airport"}, {"icao": "KHFD", "iata": "HFD", "name": "Hartford Brainard Airport", "lat": 41.736698150635, "lon": -72.649398803711, "elev_ft": 18, "type": "medium_airport"}, {"icao": "KHGR", "iata": "HGR", "name": "Hagerstown Regional Richard A Henson Field", "lat": 39.708771, "lon": -77.728014, "elev_ft": 703, "type": "medium_airport"}, {"icao": "KHHR", "iata": "HHR", "name": "Jack Northrop Field Hawthorne Municipal Airport", "lat": 33.922798, "lon": -118.334999, "elev_ft": 66, "type": "medium_airport"}, {"icao": "KHIB", "iata": "HIB", "name": "Range Regional Airport", "lat": 47.384831, "lon": -92.836905, "elev_ft": 1354, "type": "medium_airport"}, {"icao": "KHIF", "iata": "HIF", "name": "Hill Air Force Base", "lat": 41.12403, "lon": -111.973086, "elev_ft": 4789, "type": "medium_airport"}, {"icao": "KHII", "iata": "HII", "name": "Lake Havasu City Airport", "lat": 34.570506, "lon": -114.357745, "elev_ft": 783, "type": "medium_airport"}, {"icao": "KHIO", "iata": "HIO", "name": "Portland Hillsboro Airport", "lat": 45.540401, "lon": -122.949997, "elev_ft": 208, "type": "medium_airport"}, {"icao": "KHKY", "iata": "HKY", "name": "Hickory Regional Airport", "lat": 35.74110031, "lon": -81.38950348, "elev_ft": 1190, "type": "medium_airport"}, {"icao": "KHLG", "iata": "HLG", "name": "Wheeling Ohio County Airport", "lat": 40.1749992371, "lon": -80.6463012695, "elev_ft": 1195, "type": "medium_airport"}, {"icao": "KHLN", "iata": "HLN", "name": "Helena Regional Airport", "lat": 46.6068, "lon": -111.983002, "elev_ft": 3877, "type": "medium_airport"}, {"icao": "KHMN", "iata": "HMN", "name": "Holloman Air Force Base", "lat": 32.852501, "lon": -106.107002, "elev_ft": 4093, "type": "medium_airport"}, {"icao": "KHOB", "iata": "HOB", "name": "Lea County Regional Airport", "lat": 32.6875, "lon": -103.217003, "elev_ft": 3661, "type": "medium_airport"}, {"icao": "KHON", "iata": "HON", "name": "Huron Regional Airport", "lat": 44.385201, "lon": -98.2285, "elev_ft": 1289, "type": "medium_airport"}, {"icao": "KHOP", "iata": "HOP", "name": "Campbell Army Airfield (Fort Campbell)", "lat": 36.674154, "lon": -87.48974, "elev_ft": 573, "type": "medium_airport"}, {"icao": "KHOT", "iata": "HOT", "name": "Memorial Field Airport", "lat": 34.4788, "lon": -93.096262, "elev_ft": 540, "type": "medium_airport"}, {"icao": "KHOU", "iata": "HOU", "name": "William P. Hobby Airport", "lat": 29.645336, "lon": -95.276812, "elev_ft": 46, "type": "large_airport"}, {"icao": "KHPN", "iata": "HPN", "name": "Westchester County Airport", "lat": 41.06700134277344, "lon": -73.70760345458984, "elev_ft": 439, "type": "medium_airport"}, {"icao": "KHQM", "iata": "HQM", "name": "Bowerman Airport", "lat": 46.971199035599994, "lon": -123.93699646, "elev_ft": 18, "type": "medium_airport"}, {"icao": "KHRL", "iata": "HRL", "name": "Valley International Airport", "lat": 26.228500366210938, "lon": -97.65440368652344, "elev_ft": 36, "type": "medium_airport"}, {"icao": "KHRO", "iata": "HRO", "name": "Boone County Airport", "lat": 36.26150131225586, "lon": -93.15470123291016, "elev_ft": 1365, "type": "medium_airport"}, {"icao": "KHST", "iata": "HST", "name": "Homestead Air Reserve Base", "lat": 25.4886, "lon": -80.383598, "elev_ft": 5, "type": "medium_airport"}, {"icao": "KHSV", "iata": "HSV", "name": "Huntsville International Airport", "lat": 34.636244, "lon": -86.774378, "elev_ft": 629, "type": "medium_airport"}, {"icao": "KHTS", "iata": "HTS", "name": "Tri-State Airport / Milton J. Ferguson Field", "lat": 38.366699, "lon": -82.557999, "elev_ft": 828, "type": "medium_airport"}, {"icao": "KHUA", "iata": "HUA", "name": "Redstone Army Air Field", "lat": 34.67869949, "lon": -86.68479919, "elev_ft": 684, "type": "medium_airport"}, {"icao": "KHUF", "iata": "HUF", "name": "Terre Haute Regional Airport, Hulman Field", "lat": 39.4515, "lon": -87.307602, "elev_ft": 589, "type": "medium_airport"}, {"icao": "KHUL", "iata": "HUL", "name": "Houlton International Airport", "lat": 46.1231002808, "lon": -67.792098999, "elev_ft": 489, "type": "medium_airport"}, {"icao": "KHUT", "iata": "HUT", "name": "Hutchinson Municipal Airport", "lat": 38.0654983521, "lon": -97.86060333250002, "elev_ft": 1543, "type": "medium_airport"}, {"icao": "KHVN", "iata": "HVN", "name": "Tweed New Haven Airport", "lat": 41.262869, "lon": -72.887694, "elev_ft": 12, "type": "medium_airport"}, {"icao": "KHVR", "iata": "HVR", "name": "Havre City County Airport", "lat": 48.541387, "lon": -109.762859, "elev_ft": 2591, "type": "medium_airport"}, {"icao": "KHWO", "iata": "HWO", "name": "North Perry Airport", "lat": 26.0012, "lon": -80.2407, "elev_ft": 8, "type": "medium_airport"}, {"icao": "KHXD", "iata": "HHH", "name": "Hilton Head Airport", "lat": 32.2244, "lon": -80.697502, "elev_ft": 19, "type": "medium_airport"}, {"icao": "KHYA", "iata": "HYA", "name": "Cape Cod Gateway Airport", "lat": 41.6693, "lon": -70.280403, "elev_ft": 54, "type": "medium_airport"}, {"icao": "KHYR", "iata": "HYR", "name": "Sawyer County Airport", "lat": 46.025199890100005, "lon": -91.44429779050002, "elev_ft": 1216, "type": "medium_airport"}, {"icao": "KHYS", "iata": "HYS", "name": "Hays Regional Airport", "lat": 38.844521, "lon": -99.273148, "elev_ft": 1999, "type": "medium_airport"}, {"icao": "KHZY", "iata": "JFN", "name": "Northeast Ohio Regional Airport", "lat": 41.778, "lon": -80.695503, "elev_ft": 924, "type": "medium_airport"}, {"icao": "KIAB", "iata": "IAB", "name": "McConnell Air Force Base", "lat": 37.621899, "lon": -97.268204, "elev_ft": 1371, "type": "medium_airport"}, {"icao": "KIAD", "iata": "IAD", "name": "Washington Dulles International Airport", "lat": 38.9445, "lon": -77.455803, "elev_ft": 312, "type": "large_airport"}, {"icao": "KIAG", "iata": "IAG", "name": "Niagara Falls International Airport", "lat": 43.1073, "lon": -78.946198, "elev_ft": 589, "type": "medium_airport"}, {"icao": "KIAH", "iata": "IAH", "name": "George Bush Intercontinental Airport", "lat": 29.9844, "lon": -95.3414, "elev_ft": 97, "type": "large_airport"}, {"icao": "KICT", "iata": "ICT", "name": "Wichita Dwight D. Eisenhower National Airport", "lat": 37.650314, "lon": -97.428583, "elev_ft": 1333, "type": "medium_airport"}, {"icao": "KIDA", "iata": "IDA", "name": "Idaho Falls Regional Airport", "lat": 43.514599, "lon": -112.070999, "elev_ft": 4744, "type": "medium_airport"}, {"icao": "KIFP", "iata": "IFP", "name": "Laughlin Bullhead International Airport", "lat": 35.154726, "lon": -114.559322, "elev_ft": 701, "type": "medium_airport"}, {"icao": "KIGM", "iata": "IGM", "name": "Kingman Airport", "lat": 35.259499, "lon": -113.938004, "elev_ft": 3449, "type": "medium_airport"}, {"icao": "KIKK", "iata": "IKK", "name": "Greater Kankakee Airport", "lat": 41.07139968869999, "lon": -87.8462982178, "elev_ft": 630, "type": "medium_airport"}, {"icao": "KILG", "iata": "ILG", "name": "Wilmington Airport", "lat": 39.678699, "lon": -75.606499, "elev_ft": 80, "type": "medium_airport"}, {"icao": "KILM", "iata": "ILM", "name": "Wilmington International Airport", "lat": 34.272345, "lon": -77.905117, "elev_ft": 32, "type": "medium_airport"}, {"icao": "KILN", "iata": "ILN", "name": "Wilmington Airpark", "lat": 39.427898407, "lon": -83.792098999, "elev_ft": 1077, "type": "medium_airport"}, {"icao": "KIMT", "iata": "IMT", "name": "Ford Airport", "lat": 45.81911, "lon": -88.114557, "elev_ft": 1182, "type": "medium_airport"}, {"icao": "KIND", "iata": "IND", "name": "Indianapolis International Airport", "lat": 39.7173, "lon": -86.294403, "elev_ft": 797, "type": "large_airport"}, {"icao": "KINK", "iata": "INK", "name": "Winkler County Airport", "lat": 31.7796, "lon": -103.200996, "elev_ft": 2822, "type": "medium_airport"}, {"icao": "KINL", "iata": "INL", "name": "Falls International Airport", "lat": 48.566200256347656, "lon": -93.4030990600586, "elev_ft": 1185, "type": "medium_airport"}, {"icao": "KINT", "iata": "INT", "name": "Smith Reynolds Airport", "lat": 36.13370132446289, "lon": -80.22200012207031, "elev_ft": 969, "type": "medium_airport"}, {"icao": "KINW", "iata": "INW", "name": "Winslow Lindbergh Regional Airport", "lat": 35.021900177, "lon": -110.722999573, "elev_ft": 4941, "type": "medium_airport"}, {"icao": "KIPL", "iata": "IPL", "name": "Imperial County Airport", "lat": 32.83539, "lon": -115.574026, "elev_ft": -54, "type": "medium_airport"}, {"icao": "KIPT", "iata": "IPT", "name": "Williamsport Regional Airport", "lat": 41.242126, "lon": -76.92245, "elev_ft": 529, "type": "medium_airport"}, {"icao": "KIRK", "iata": "IRK", "name": "Kirksville Regional Airport", "lat": 40.09349822998047, "lon": -92.5448989868164, "elev_ft": 966, "type": "medium_airport"}, {"icao": "KISM", "iata": "ISM", "name": "Kissimmee Gateway Airport", "lat": 28.2898006439, "lon": -81.4371032715, "elev_ft": 82, "type": "medium_airport"}, {"icao": "KISO", "iata": "ISO", "name": "Kinston Regional Jetport At Stallings Field", "lat": 35.331401825, "lon": -77.60880279540001, "elev_ft": 93, "type": "medium_airport"}, {"icao": "KISP", "iata": "ISP", "name": "Long Island MacArthur Airport", "lat": 40.796324, "lon": -73.101703, "elev_ft": 99, "type": "medium_airport"}, {"icao": "KITH", "iata": "ITH", "name": "Ithaca Tompkins Regional Airport", "lat": 42.49100112915039, "lon": -76.4583969116211, "elev_ft": 1099, "type": "medium_airport"}, {"icao": "KIWA", "iata": "AZA", "name": "Mesa Gateway Airport", "lat": 33.3078, "lon": -111.654999, "elev_ft": 1382, "type": "medium_airport"}, {"icao": "KJAC", "iata": "JAC", "name": "Jackson Hole Airport", "lat": 43.6073, "lon": -110.737999, "elev_ft": 6451, "type": "medium_airport"}, {"icao": "KJAN", "iata": "JAN", "name": "Jackson-Medgar Wiley Evers International Airport", "lat": 32.311199, "lon": -90.075897, "elev_ft": 346, "type": "medium_airport"}, {"icao": "KJAX", "iata": "JAX", "name": "Jacksonville International Airport", "lat": 30.492469, "lon": -81.687813, "elev_ft": 30, "type": "large_airport"}, {"icao": "KJBR", "iata": "JBR", "name": "Jonesboro Municipal Airport", "lat": 35.83169937133789, "lon": -90.64640045166016, "elev_ft": 262, "type": "medium_airport"}, {"icao": "KJCT", "iata": "JCT", "name": "Kimble County Airport", "lat": 30.5112991333, "lon": -99.7634963989, "elev_ft": 1749, "type": "medium_airport"}, {"icao": "KJFK", "iata": "JFK", "name": "John F. Kennedy International Airport", "lat": 40.639447, "lon": -73.779317, "elev_ft": 13, "type": "large_airport"}, {"icao": "KJHW", "iata": "JHW", "name": "Chautauqua County-Jamestown Airport", "lat": 42.15425, "lon": -79.254008, "elev_ft": 1723, "type": "medium_airport"}, {"icao": "KJLN", "iata": "JLN", "name": "Joplin Regional Airport", "lat": 37.151798, "lon": -94.498299, "elev_ft": 981, "type": "medium_airport"}, {"icao": "KJMS", "iata": "JMS", "name": "Jamestown Regional Airport", "lat": 46.92969894, "lon": -98.67819977, "elev_ft": 1500, "type": "medium_airport"}, {"icao": "KJQF", "iata": "USA", "name": "Concord-Padgett Regional Airport", "lat": 35.387798, "lon": -80.709099, "elev_ft": 705, "type": "medium_airport"}, {"icao": "KJST", "iata": "JST", "name": "John Murtha Johnstown Cambria County Airport", "lat": 40.31610107421875, "lon": -78.83390045166016, "elev_ft": 2284, "type": "medium_airport"}, {"icao": "KJXN", "iata": "JXN", "name": "Jackson County Airport/Reynolds Field", "lat": 42.260509, "lon": -84.463019, "elev_ft": 1001, "type": "medium_airport"}, {"icao": "KKLS", "iata": "KLS", "name": "Southwest Washington Regional Airport", "lat": 46.11800003049999, "lon": -122.898002625, "elev_ft": 20, "type": "medium_airport"}, {"icao": "KLAA", "iata": "LAA", "name": "Southeast Colorado Regional Airport", "lat": 38.066407, "lon": -102.691373, "elev_ft": 3706, "type": "medium_airport"}, {"icao": "KLAF", "iata": "LAF", "name": "Purdue University Airport", "lat": 40.412875, "lon": -86.939363, "elev_ft": 606, "type": "medium_airport"}, {"icao": "KLAL", "iata": "LAL", "name": "Lakeland Linder International Airport", "lat": 27.989267, "lon": -82.020715, "elev_ft": 142, "type": "medium_airport"}, {"icao": "KLAN", "iata": "LAN", "name": "Capital Region International Airport", "lat": 42.777582, "lon": -84.585721, "elev_ft": 861, "type": "medium_airport"}, {"icao": "KLAR", "iata": "LAR", "name": "Laramie Regional Airport", "lat": 41.31209945678711, "lon": -105.67500305175781, "elev_ft": 7284, "type": "medium_airport"}, {"icao": "KLAS", "iata": "LAS", "name": "Harry Reid International Airport", "lat": 36.083361, "lon": -115.151817, "elev_ft": 2181, "type": "large_airport"}, {"icao": "KLAW", "iata": "LAW", "name": "Lawton Fort Sill Regional Airport", "lat": 34.567699, "lon": -98.416603, "elev_ft": 1110, "type": "medium_airport"}, {"icao": "KLAX", "iata": "LAX", "name": "Los Angeles International Airport", "lat": 33.942501, "lon": -118.407997, "elev_ft": 125, "type": "large_airport"}, {"icao": "KLBB", "iata": "LBB", "name": "Lubbock Preston Smith International Airport", "lat": 33.663601, "lon": -101.822998, "elev_ft": 3282, "type": "medium_airport"}, {"icao": "KLBE", "iata": "LBE", "name": "Arnold Palmer Regional Airport", "lat": 40.275902, "lon": -79.4048, "elev_ft": 1199, "type": "medium_airport"}, {"icao": "KLBF", "iata": "LBF", "name": "North Platte Regional Airport Lee Bird Field", "lat": 41.12620163, "lon": -100.6839981, "elev_ft": 2777, "type": "medium_airport"}, {"icao": "KLBL", "iata": "LBL", "name": "Liberal Mid-America Regional Airport", "lat": 37.0442009, "lon": -100.9599991, "elev_ft": 2885, "type": "medium_airport"}, {"icao": "KLBT", "iata": "LBT", "name": "Lumberton Regional Airport", "lat": 34.610773, "lon": -79.05943, "elev_ft": 126, "type": "medium_airport"}, {"icao": "KLBX", "iata": "LJN", "name": "Texas Gulf Coast Regional Airport", "lat": 29.108601, "lon": -95.462097, "elev_ft": 25, "type": "medium_airport"}, {"icao": "KLCH", "iata": "LCH", "name": "Lake Charles Regional Airport", "lat": 30.126100540161133, "lon": -93.22329711914062, "elev_ft": 15, "type": "medium_airport"}, {"icao": "KLCK", "iata": "LCK", "name": "Rickenbacker International Airport", "lat": 39.813801, "lon": -82.927803, "elev_ft": 744, "type": "medium_airport"}, {"icao": "KLEB", "iata": "LEB", "name": "Lebanon Municipal Airport", "lat": 43.626098632799994, "lon": -72.30419921880001, "elev_ft": 603, "type": "medium_airport"}, {"icao": "KLEE", "iata": "LEE", "name": "Leesburg International Airport", "lat": 28.82309914, "lon": -81.80870056, "elev_ft": 76, "type": "medium_airport"}, {"icao": "KLEX", "iata": "LEX", "name": "Blue Grass Airport", "lat": 38.035066, "lon": -84.606738, "elev_ft": 979, "type": "medium_airport"}, {"icao": "KLFI", "iata": "LFI", "name": "Langley Air Force Base", "lat": 37.082901, "lon": -76.360497, "elev_ft": 11, "type": "medium_airport"}, {"icao": "KLFK", "iata": "LFK", "name": "Angelina County Airport", "lat": 31.2339992523, "lon": -94.75, "elev_ft": 296, "type": "medium_airport"}, {"icao": "KLFT", "iata": "LFT", "name": "Lafayette Regional Airport", "lat": 30.205299, "lon": -91.987602, "elev_ft": 42, "type": "medium_airport"}, {"icao": "KLGA", "iata": "LGA", "name": "LaGuardia Airport", "lat": 40.777199, "lon": -73.872597, "elev_ft": 21, "type": "large_airport"}, {"icao": "KLGB", "iata": "LGB", "name": "Long Beach International Airport", "lat": 33.816523, "lon": -118.149891, "elev_ft": 60, "type": "large_airport"}, {"icao": "KLGU", "iata": "LGU", "name": "Logan-Cache Airport", "lat": 41.7911987305, "lon": -111.851997375, "elev_ft": 4457, "type": "medium_airport"}, {"icao": "KLIT", "iata": "LIT", "name": "Bill & Hillary Clinton National Airport/Adams Field", "lat": 34.729222, "lon": -92.223591, "elev_ft": 262, "type": "medium_airport"}, {"icao": "KLMT", "iata": "LMT", "name": "Crater Lake-Klamath Regional Airport", "lat": 42.156101, "lon": -121.733002, "elev_ft": 4095, "type": "medium_airport"}, {"icao": "KLND", "iata": "LND", "name": "Hunt Field", "lat": 42.815201, "lon": -108.730003, "elev_ft": 5586, "type": "medium_airport"}, {"icao": "KLNK", "iata": "LNK", "name": "Lincoln Airport", "lat": 40.844882, "lon": -96.76178, "elev_ft": 1219, "type": "medium_airport"}, {"icao": "KLNS", "iata": "LNS", "name": "Lancaster Airport", "lat": 40.121700286865234, "lon": -76.29609680175781, "elev_ft": 403, "type": "medium_airport"}, {"icao": "KLOL", "iata": "LOL", "name": "Derby Field", "lat": 40.0663986206, "lon": -118.565002441, "elev_ft": 3904, "type": "medium_airport"}, {"icao": "KLOU", "iata": "LOU", "name": "Bowman Field", "lat": 38.2280006409, "lon": -85.6636962891, "elev_ft": 546, "type": "medium_airport"}, {"icao": "KLOZ", "iata": "LOZ", "name": "London-Corbin Airport/Magee Field", "lat": 37.0821990967, "lon": -84.08489990230001, "elev_ft": 1212, "type": "medium_airport"}, {"icao": "KLRD", "iata": "LRD", "name": "Laredo International Airport", "lat": 27.5438, "lon": -99.461601, "elev_ft": 508, "type": "medium_airport"}, {"icao": "KLRF", "iata": "LRF", "name": "Little Rock Air Force Base", "lat": 34.916900634799994, "lon": -92.14969635010002, "elev_ft": 311, "type": "medium_airport"}, {"icao": "KLRU", "iata": "LRU", "name": "Las Cruces International Airport", "lat": 32.289398, "lon": -106.921997, "elev_ft": 4456, "type": "medium_airport"}, {"icao": "KLSE", "iata": "LSE", "name": "La Crosse Regional Airport", "lat": 43.879002, "lon": -91.256699, "elev_ft": 655, "type": "medium_airport"}, {"icao": "KLSF", "iata": "LSF", "name": "Lawson Army Air Field", "lat": 32.332546, "lon": -84.988003, "elev_ft": 232, "type": "medium_airport"}, {"icao": "KLSV", "iata": "LSV", "name": "Nellis Air Force Base", "lat": 36.2361984253, "lon": -115.033996582, "elev_ft": 1870, "type": "medium_airport"}, {"icao": "KLTS", "iata": "LTS", "name": "Altus Air Force Base", "lat": 34.667099, "lon": -99.266701, "elev_ft": 1382, "type": "medium_airport"}, {"icao": "KLUF", "iata": "LUF", "name": "Luke Air Force Base", "lat": 33.535, "lon": -112.383003, "elev_ft": 1085, "type": "medium_airport"}, {"icao": "KLUK", "iata": "LUK", "name": "Cincinnati Municipal Airport Lunken Field", "lat": 39.102357, "lon": -84.418945, "elev_ft": 483, "type": "medium_airport"}, {"icao": "KLVM", "iata": "LVM", "name": "Mission Field", "lat": 45.6994018555, "lon": -110.447998047, "elev_ft": 4660, "type": "medium_airport"}, {"icao": "KLVS", "iata": "LVS", "name": "Las Vegas Municipal Airport", "lat": 35.654202, "lon": -105.141998, "elev_ft": 6877, "type": "medium_airport"}, {"icao": "KLWB", "iata": "LWB", "name": "Greenbrier Valley Airport", "lat": 37.857914, "lon": -80.400438, "elev_ft": 2302, "type": "medium_airport"}, {"icao": "KLWM", "iata": "LWM", "name": "Lawrence Municipal Airport", "lat": 42.717201232899995, "lon": -71.1233978271, "elev_ft": 148, "type": "medium_airport"}, {"icao": "KLWS", "iata": "LWS", "name": "Lewiston Nez Perce County Airport", "lat": 46.3745002746582, "lon": -117.01499938964844, "elev_ft": 1442, "type": "medium_airport"}, {"icao": "KLWT", "iata": "LWT", "name": "Lewistown Municipal Airport", "lat": 47.048429, "lon": -109.466143, "elev_ft": 4170, "type": "medium_airport"}, {"icao": "KLYH", "iata": "LYH", "name": "Lynchburg Regional Airport - Preston Glenn Field", "lat": 37.326698, "lon": -79.200401, "elev_ft": 938, "type": "medium_airport"}, {"icao": "KMAF", "iata": "MAF", "name": "Midland International Air and Space Port", "lat": 31.942499, "lon": -102.202003, "elev_ft": 2871, "type": "medium_airport"}, {"icao": "KMBG", "iata": "MBG", "name": "Mobridge Municipal Airport", "lat": 45.54650116, "lon": -100.4079971, "elev_ft": 1716, "type": "medium_airport"}, {"icao": "KMBS", "iata": "MBS", "name": "MBS International Airport", "lat": 43.533181, "lon": -84.083104, "elev_ft": 668, "type": "medium_airport"}, {"icao": "KMCB", "iata": "MCB", "name": "McComb-Pike County Airport / John E Lewis Field", "lat": 31.178499, "lon": -90.471901, "elev_ft": 413, "type": "medium_airport"}, {"icao": "KMCC", "iata": "MCC", "name": "McClellan Airfield", "lat": 38.667599, "lon": -121.401001, "elev_ft": 77, "type": "medium_airport"}, {"icao": "KMCE", "iata": "MCE", "name": "Merced Regional Macready Field", "lat": 37.284698, "lon": -120.514, "elev_ft": 155, "type": "medium_airport"}, {"icao": "KMCF", "iata": "MCF", "name": "MacDill Air Force Base", "lat": 27.8493, "lon": -82.521202, "elev_ft": 14, "type": "medium_airport"}, {"icao": "KMCI", "iata": "MCI", "name": "Kansas City International Airport", "lat": 39.301699, "lon": -94.713893, "elev_ft": 1026, "type": "large_airport"}, {"icao": "KMCK", "iata": "MCK", "name": "McCook Ben Nelson Regional Airport", "lat": 40.207787, "lon": -100.592794, "elev_ft": 2583, "type": "medium_airport"}, {"icao": "KMCN", "iata": "MCN", "name": "Middle Georgia Regional Airport", "lat": 32.69279861450195, "lon": -83.64920043945312, "elev_ft": 354, "type": "medium_airport"}, {"icao": "KMCO", "iata": "MCO", "name": "Orlando International Airport", "lat": 28.429399490356445, "lon": -81.30899810791016, "elev_ft": 96, "type": "large_airport"}, {"icao": "KMCW", "iata": "MCW", "name": "Mason City Municipal Airport", "lat": 43.159801, "lon": -93.329716, "elev_ft": 1213, "type": "medium_airport"}, {"icao": "KMDH", "iata": "MDH", "name": "Southern Illinois Airport", "lat": 37.778099, "lon": -89.251999, "elev_ft": 411, "type": "medium_airport"}, {"icao": "KMDT", "iata": "MDT", "name": "Harrisburg International Airport", "lat": 40.192838, "lon": -76.762333, "elev_ft": 310, "type": "medium_airport"}, {"icao": "KMDW", "iata": "MDW", "name": "Chicago Midway International Airport", "lat": 41.785999, "lon": -87.752403, "elev_ft": 620, "type": "large_airport"}, {"icao": "KMEI", "iata": "MEI", "name": "Key Field / Meridian Regional Airport", "lat": 32.3326, "lon": -88.7519, "elev_ft": 297, "type": "medium_airport"}, {"icao": "KMEM", "iata": "MEM", "name": "Memphis International Airport", "lat": 35.043845, "lon": -89.97634, "elev_ft": 341, "type": "large_airport"}, {"icao": "KMER", "iata": "MER", "name": "Castle Airport", "lat": 37.38050079, "lon": -120.5680008, "elev_ft": 191, "type": "medium_airport"}, {"icao": "KMFD", "iata": "MFD", "name": "Mansfield Lahm Regional Airport", "lat": 40.82139968869999, "lon": -82.5166015625, "elev_ft": 1297, "type": "medium_airport"}, {"icao": "KMFE", "iata": "MFE", "name": "McAllen Miller International Airport", "lat": 26.176141, "lon": -98.237965, "elev_ft": 107, "type": "medium_airport"}, {"icao": "KMFR", "iata": "MFR", "name": "Rogue Valley International-Medford Airport", "lat": 42.374199, "lon": -122.873001, "elev_ft": 1335, "type": "medium_airport"}, {"icao": "KMGC", "iata": "MGC", "name": "Michigan City Municipal Airport", "lat": 41.7033, "lon": -86.821198, "elev_ft": 655, "type": "medium_airport"}, {"icao": "KMGE", "iata": "MGE", "name": "Dobbins Air Reserve Base", "lat": 33.915401, "lon": -84.516296, "elev_ft": 1068, "type": "medium_airport"}, {"icao": "KMGM", "iata": "MGM", "name": "Montgomery Regional (Dannelly Field) Airport", "lat": 32.300598, "lon": -86.393997, "elev_ft": 221, "type": "medium_airport"}, {"icao": "KMGW", "iata": "MGW", "name": "Morgantown Municipal Airport Walter L. (Bill) Hart Field", "lat": 39.643305, "lon": -79.917598, "elev_ft": 1248, "type": "medium_airport"}, {"icao": "KMHK", "iata": "MHK", "name": "Manhattan Regional Airport", "lat": 39.14099884033203, "lon": -96.6707992553711, "elev_ft": 1057, "type": "medium_airport"}, {"icao": "KMHR", "iata": "MHR", "name": "Sacramento Mather Airport", "lat": 38.554744, "lon": -121.297989, "elev_ft": 98, "type": "medium_airport"}, {"icao": "KMHT", "iata": "MHT", "name": "Manchester-Boston Regional Airport", "lat": 42.932598, "lon": -71.435699, "elev_ft": 266, "type": "medium_airport"}, {"icao": "KMHV", "iata": "MHV", "name": "Mojave Air &  Space Port", "lat": 35.056391, "lon": -118.145342, "elev_ft": 2801, "type": "medium_airport"}, {"icao": "KMIA", "iata": "MIA", "name": "Miami International Airport", "lat": 25.796011, "lon": -80.289751, "elev_ft": 8, "type": "large_airport"}, {"icao": "KMIB", "iata": "MIB", "name": "Minot Air Force Base", "lat": 48.4156, "lon": -101.358002, "elev_ft": 1667, "type": "medium_airport"}, {"icao": "KMIE", "iata": "MIE", "name": "Delaware County Johnson Field", "lat": 40.242298, "lon": -85.395897, "elev_ft": 937, "type": "medium_airport"}, {"icao": "KMIV", "iata": "MIV", "name": "Millville Municipal Airport", "lat": 39.367802, "lon": -75.072197, "elev_ft": 85, "type": "medium_airport"}, {"icao": "KMKC", "iata": "MKC", "name": "Charles B. Wheeler Downtown Airport", "lat": 39.123199, "lon": -94.592796, "elev_ft": 759, "type": "medium_airport"}, {"icao": "KMKE", "iata": "MKE", "name": "General Mitchell International Airport", "lat": 42.947201, "lon": -87.896599, "elev_ft": 723, "type": "large_airport"}, {"icao": "KMKG", "iata": "MKG", "name": "Muskegon County Airport", "lat": 43.169498, "lon": -86.238197, "elev_ft": 629, "type": "medium_airport"}, {"icao": "KMKL", "iata": "MKL", "name": "McKellar-Sipes Regional Airport", "lat": 35.599899, "lon": -88.915604, "elev_ft": 434, "type": "medium_airport"}, {"icao": "KMLB", "iata": "MLB", "name": "Melbourne Orlando International Airport", "lat": 28.102009, "lon": -80.641088, "elev_ft": 33, "type": "medium_airport"}, {"icao": "KMLC", "iata": "MLC", "name": "Mc Alester Regional Airport", "lat": 34.882401, "lon": -95.783501, "elev_ft": 770, "type": "medium_airport"}, {"icao": "KMLI", "iata": "MLI", "name": "Quad City International Airport", "lat": 41.448502, "lon": -90.5075, "elev_ft": 590, "type": "medium_airport"}, {"icao": "KMLS", "iata": "MLS", "name": "Miles City Airport - Frank Wiley Field", "lat": 46.427268, "lon": -105.885372, "elev_ft": 2630, "type": "medium_airport"}, {"icao": "KMLU", "iata": "MLU", "name": "Monroe Regional Airport", "lat": 32.510899, "lon": -92.037697, "elev_ft": 79, "type": "medium_airport"}, {"icao": "KMMH", "iata": "MMH", "name": "Mammoth Yosemite Airport", "lat": 37.625381, "lon": -118.84306, "elev_ft": 7135, "type": "medium_airport"}, {"icao": "KMMT", "iata": "MMT", "name": "Mc Entire Joint National Guard Base", "lat": 33.92079926, "lon": -80.80130005, "elev_ft": 254, "type": "medium_airport"}, {"icao": "KMMU", "iata": "MMU", "name": "Morristown Municipal Airport", "lat": 40.799062, "lon": -74.414949, "elev_ft": 187, "type": "medium_airport"}, {"icao": "KMOB", "iata": "MOB", "name": "Mobile Regional Airport", "lat": 30.6912, "lon": -88.242798, "elev_ft": 219, "type": "medium_airport"}, {"icao": "KMOD", "iata": "MOD", "name": "Modesto City Co-Harry Sham Field", "lat": 37.625801, "lon": -120.954002, "elev_ft": 97, "type": "medium_airport"}, {"icao": "KMOT", "iata": "MOT", "name": "Minot International Airport", "lat": 48.25801, "lon": -101.279123, "elev_ft": 1716, "type": "medium_airport"}, {"icao": "KMPV", "iata": "MPV", "name": "Edward F Knapp State Airport", "lat": 44.20349884, "lon": -72.56230164, "elev_ft": 1166, "type": "medium_airport"}, {"icao": "KMQY", "iata": "MQY", "name": "Smyrna Airport", "lat": 36.0089988708, "lon": -86.5201034546, "elev_ft": 543, "type": "medium_airport"}, {"icao": "KMRB", "iata": "MRB", "name": "Eastern WV Regional Airport/Shepherd Field", "lat": 39.40190125, "lon": -77.98459625, "elev_ft": 565, "type": "medium_airport"}, {"icao": "KMRY", "iata": "MRY", "name": "Monterey Regional Airport", "lat": 36.586777, "lon": -121.844183, "elev_ft": 257, "type": "medium_airport"}, {"icao": "KMSL", "iata": "MSL", "name": "Northwest Alabama Regional Airport", "lat": 34.745123, "lon": -87.612981, "elev_ft": 551, "type": "medium_airport"}, {"icao": "KMSN", "iata": "MSN", "name": "Dane County Regional Truax Field", "lat": 43.1399, "lon": -89.337502, "elev_ft": 887, "type": "medium_airport"}, {"icao": "KMSO", "iata": "MSO", "name": "Missoula Montana Airport", "lat": 46.915816, "lon": -114.091107, "elev_ft": 3206, "type": "medium_airport"}, {"icao": "KMSP", "iata": "MSP", "name": "Minneapolis\u2013Saint Paul International Airport / Wold\u2013Chamberlain Field", "lat": 44.880081, "lon": -93.221741, "elev_ft": 841, "type": "large_airport"}, {"icao": "KMSS", "iata": "MSS", "name": "Massena International Airport Richards Field", "lat": 44.936157, "lon": -74.844304, "elev_ft": 215, "type": "medium_airport"}, {"icao": "KMSY", "iata": "MSY", "name": "Louis Armstrong New Orleans International Airport", "lat": 29.993401, "lon": -90.264673, "elev_ft": 4, "type": "large_airport"}, {"icao": "KMTC", "iata": "MTC", "name": "Selfridge Air National Guard Base Airport", "lat": 42.613463, "lon": -82.836919, "elev_ft": 580, "type": "medium_airport"}, {"icao": "KMTH", "iata": "MTH", "name": "Florida Keys Marathon International Airport", "lat": 24.726006, "lon": -81.05138, "elev_ft": 5, "type": "medium_airport"}, {"icao": "KMTJ", "iata": "MTJ", "name": "Montrose Regional Airport", "lat": 38.5098, "lon": -107.893997, "elev_ft": 5759, "type": "medium_airport"}, {"icao": "KMTN", "iata": "MTN", "name": "Martin State Airport", "lat": 39.325699, "lon": -76.413803, "elev_ft": 21, "type": "medium_airport"}, {"icao": "KMUI", "iata": "MUI", "name": "Muir Army Air Field (Fort Indiantown Gap) Airport", "lat": 40.435214, "lon": -76.568661, "elev_ft": 488, "type": "medium_airport"}, {"icao": "KMUO", "iata": "MUO", "name": "Mountain Home Air Force Base", "lat": 43.043598, "lon": -115.872002, "elev_ft": 2996, "type": "medium_airport"}, {"icao": "KMWA", "iata": "MWA", "name": "Veterans Airport of Southern Illinois", "lat": 37.751208, "lon": -89.016568, "elev_ft": 472, "type": "medium_airport"}, {"icao": "KMWH", "iata": "MWH", "name": "Grant County International Airport", "lat": 47.20769882, "lon": -119.3199997, "elev_ft": 1189, "type": "medium_airport"}, {"icao": "KMWL", "iata": "MWL", "name": "Mineral Wells Regional Airport", "lat": 32.781601, "lon": -98.060204, "elev_ft": 974, "type": "medium_airport"}, {"icao": "KMXF", "iata": "MXF", "name": "Maxwell Air Force Base", "lat": 32.3829, "lon": -86.365799, "elev_ft": 171, "type": "medium_airport"}, {"icao": "KMYL", "iata": "MYL", "name": "McCall Municipal Airport", "lat": 44.888837, "lon": -116.101112, "elev_ft": 5024, "type": "medium_airport"}, {"icao": "KMYR", "iata": "MYR", "name": "Myrtle Beach International Airport", "lat": 33.679699, "lon": -78.928299, "elev_ft": 25, "type": "large_airport"}, {"icao": "KMYV", "iata": "MYV", "name": "Yuba County Airport", "lat": 39.09780121, "lon": -121.5699997, "elev_ft": 64, "type": "medium_airport"}, {"icao": "KNBG", "iata": "NBG", "name": "New Orleans NAS JRB/Alvin Callender Field", "lat": 29.82530022, "lon": -90.03500366, "elev_ft": 2, "type": "medium_airport"}, {"icao": "KNEL", "iata": "NEL", "name": "Lakehurst Maxfield Field Airport", "lat": 40.03329849, "lon": -74.353302, "elev_ft": 101, "type": "medium_airport"}, {"icao": "KNEW", "iata": "NEW", "name": "Lakefront Airport", "lat": 30.042400360107, "lon": -90.028297424316, "elev_ft": 8, "type": "medium_airport"}, {"icao": "KNFL", "iata": "NFL", "name": "Fallon Naval Air Station", "lat": 39.41659927, "lon": -118.7009964, "elev_ft": 3934, "type": "medium_airport"}, {"icao": "KNFW", "iata": "FWH", "name": "NAS Fort Worth JRB / Carswell Field", "lat": 32.769199, "lon": -97.441498, "elev_ft": 650, "type": "medium_airport"}, {"icao": "KNGP", "iata": "NGP", "name": "Naval Air Station Corpus Christi Truax Field", "lat": 27.6926, "lon": -97.2911, "elev_ft": 18, "type": "medium_airport"}, {"icao": "KNGU", "iata": "NGU", "name": "Norfolk Naval Station (Chambers Field)", "lat": 36.937599, "lon": -76.289299, "elev_ft": 17, "type": "medium_airport"}, {"icao": "KNHK", "iata": "NHK", "name": "Patuxent River Naval Air Station (Trapnell Field)", "lat": 38.285999, "lon": -76.411797, "elev_ft": 39, "type": "medium_airport"}, {"icao": "KNIP", "iata": "NIP", "name": "Jacksonville Naval Air Station (Towers Field)", "lat": 30.2358, "lon": -81.680603, "elev_ft": 21, "type": "medium_airport"}, {"icao": "KNJK", "iata": "NJK", "name": "El Centro NAF Airport (Vraciu Field)", "lat": 32.829201, "lon": -115.671996, "elev_ft": -42, "type": "medium_airport"}, {"icao": "KNKX", "iata": "NKX", "name": "Miramar Marine Corps Air Station - Mitscher Field", "lat": 32.86840057, "lon": -117.1429977, "elev_ft": 477, "type": "medium_airport"}, {"icao": "KNLC", "iata": "NLC", "name": "Lemoore Naval Air Station (Reeves Field) Airport", "lat": 36.33300018, "lon": -119.9520035, "elev_ft": 232, "type": "medium_airport"}, {"icao": "KNPA", "iata": "NPA", "name": "Naval Air Station Pensacola Forrest Sherman Field", "lat": 30.352699, "lon": -87.318604, "elev_ft": 28, "type": "medium_airport"}, {"icao": "KNQA", "iata": "NQA", "name": "Millington-Memphis Airport", "lat": 35.356701, "lon": -89.8703, "elev_ft": 320, "type": "medium_airport"}, {"icao": "KNQI", "iata": "NQI", "name": "Kingsville Naval Air Station", "lat": 27.5072002411, "lon": -97.8097000122, "elev_ft": 50, "type": "medium_airport"}, {"icao": "KNQX", "iata": "NQX", "name": "Naval Air Station Key West/Boca Chica Field", "lat": 24.57579994, "lon": -81.68890381, "elev_ft": 6, "type": "medium_airport"}, {"icao": "KNRB", "iata": "NRB", "name": "Naval Station Mayport / Admiral David L McDonald Field", "lat": 30.3911, "lon": -81.424698, "elev_ft": 15, "type": "medium_airport"}, {"icao": "KNSE", "iata": "NSE", "name": "Whiting Field Naval Air Station - North", "lat": 30.7241993, "lon": -87.02189636, "elev_ft": 199, "type": "medium_airport"}, {"icao": "KNTD", "iata": "NTD", "name": "Point Mugu Naval Air Station (Naval Base Ventura Co)", "lat": 34.120300293, "lon": -119.121002197, "elev_ft": 13, "type": "medium_airport"}, {"icao": "KNTU", "iata": "NTU", "name": "Oceana Naval Air Station", "lat": 36.820702, "lon": -76.033501, "elev_ft": 23, "type": "medium_airport"}, {"icao": "KNUQ", "iata": "NUQ", "name": "Moffett Federal Airfield", "lat": 37.4161, "lon": -122.049004, "elev_ft": 32, "type": "medium_airport"}, {"icao": "KNUW", "iata": "NUW", "name": "Whidbey Island Naval Air Station (Ault Field)", "lat": 48.351799, "lon": -122.655998, "elev_ft": 47, "type": "medium_airport"}, {"icao": "KNYG", "iata": "NYG", "name": "Quantico Marine Corps Airfield / Turner Field", "lat": 38.501701, "lon": -77.305298, "elev_ft": 10, "type": "medium_airport"}, {"icao": "KNYL", "iata": "YUM", "name": "Yuma International Airport / Marine Corps Air Station Yuma", "lat": 32.650938, "lon": -114.609375, "elev_ft": 213, "type": "medium_airport"}, {"icao": "KNZY", "iata": "NZY", "name": "North Island Naval Air Station-Halsey Field", "lat": 32.69919968, "lon": -117.2149963, "elev_ft": 26, "type": "medium_airport"}, {"icao": "KOAJ", "iata": "OAJ", "name": "Albert J Ellis Airport", "lat": 34.829201, "lon": -77.612099, "elev_ft": 94, "type": "medium_airport"}, {"icao": "KOAK", "iata": "OAK", "name": "San Francisco Bay Oakland International Airport", "lat": 37.720085, "lon": -122.221184, "elev_ft": 9, "type": "large_airport"}, {"icao": "KOFF", "iata": "OFF", "name": "Offutt Air Force Base", "lat": 41.119307, "lon": -95.90851, "elev_ft": 1052, "type": "medium_airport"}, {"icao": "KOFK", "iata": "OFK", "name": "Karl Stefan Memorial Airport", "lat": 41.985500335693, "lon": -97.435096740723, "elev_ft": 1573, "type": "medium_airport"}, {"icao": "KOGB", "iata": "OGB", "name": "Orangeburg Municipal Airport", "lat": 33.456798553467, "lon": -80.859497070312, "elev_ft": 195, "type": "medium_airport"}, {"icao": "KOGD", "iata": "OGD", "name": "Ogden Hinckley Airport", "lat": 41.195899963379, "lon": -112.0120010376, "elev_ft": 4473, "type": "medium_airport"}, {"icao": "KOGS", "iata": "OGS", "name": "Ogdensburg International Airport", "lat": 44.6819, "lon": -75.4655, "elev_ft": 297, "type": "medium_airport"}, {"icao": "KOKB", "iata": "OCN", "name": "Oceanside Municipal Airport", "lat": 33.217947, "lon": -117.351683, "elev_ft": 28, "type": "medium_airport"}, {"icao": "KOKC", "iata": "OKC", "name": "OKC Will Rogers World Airport", "lat": 35.393388, "lon": -97.598248, "elev_ft": 1295, "type": "large_airport"}, {"icao": "KOLF", "iata": "OLF", "name": "L M Clayton Airport", "lat": 48.094501, "lon": -105.574997, "elev_ft": 1986, "type": "medium_airport"}, {"icao": "KOLM", "iata": "OLM", "name": "Olympia Regional Airport", "lat": 46.969399, "lon": -122.903, "elev_ft": 209, "type": "medium_airport"}, {"icao": "KOLS", "iata": "OLS", "name": "Nogales International Airport", "lat": 31.4177, "lon": -110.848, "elev_ft": 3955, "type": "medium_airport"}, {"icao": "KOLU", "iata": "OLU", "name": "Columbus Municipal Airport", "lat": 41.448145, "lon": -97.340174, "elev_ft": 1447, "type": "medium_airport"}, {"icao": "KOMA", "iata": "OMA", "name": "Eppley Airfield", "lat": 41.3032, "lon": -95.894096, "elev_ft": 984, "type": "large_airport"}, {"icao": "KONO", "iata": "ONO", "name": "Ontario Municipal Airport", "lat": 44.0198, "lon": -117.013289, "elev_ft": 2193, "type": "medium_airport"}, {"icao": "KONP", "iata": "ONP", "name": "Newport Municipal Airport", "lat": 44.580399, "lon": -124.057999, "elev_ft": 160, "type": "medium_airport"}, {"icao": "KONT", "iata": "ONT", "name": "Ontario International Airport", "lat": 34.056, "lon": -117.600998, "elev_ft": 944, "type": "large_airport"}, {"icao": "KOPF", "iata": "OPF", "name": "Miami-Opa Locka Executive Airport", "lat": 25.907, "lon": -80.278397, "elev_ft": 8, "type": "medium_airport"}, {"icao": "KOQU", "iata": "NCO", "name": "Quonset State Airport", "lat": 41.597099304199, "lon": -71.412101745605, "elev_ft": 18, "type": "medium_airport"}, {"icao": "KORD", "iata": "ORD", "name": "Chicago O'Hare International Airport", "lat": 41.9786, "lon": -87.9048, "elev_ft": 680, "type": "large_airport"}, {"icao": "KORF", "iata": "ORF", "name": "Norfolk International Airport", "lat": 36.895341, "lon": -76.201, "elev_ft": 26, "type": "large_airport"}, {"icao": "KORH", "iata": "ORH", "name": "Worcester Regional Airport", "lat": 42.2673, "lon": -71.875702, "elev_ft": 1009, "type": "medium_airport"}, {"icao": "KORL", "iata": "ORL", "name": "Orlando Executive Airport", "lat": 28.5455, "lon": -81.332901, "elev_ft": 113, "type": "medium_airport"}, {"icao": "KORS", "iata": "ESD", "name": "Orcas Island Airport", "lat": 48.708199, "lon": -122.910004, "elev_ft": 31, "type": "medium_airport"}, {"icao": "KOSH", "iata": "OSH", "name": "Wittman Regional Airport", "lat": 43.98440170288086, "lon": -88.55699920654297, "elev_ft": 808, "type": "medium_airport"}, {"icao": "KOSU", "iata": "OSU", "name": "The Ohio State University Airport - Don Scott Field", "lat": 40.0798, "lon": -83.072998, "elev_ft": 905, "type": "medium_airport"}, {"icao": "KOTH", "iata": "OTH", "name": "Southwest Oregon Regional Airport", "lat": 43.41709899902344, "lon": -124.24600219726562, "elev_ft": 17, "type": "medium_airport"}, {"icao": "KOTM", "iata": "OTM", "name": "Ottumwa Regional Airport", "lat": 41.106368, "lon": -92.449837, "elev_ft": 845, "type": "medium_airport"}, {"icao": "KOWB", "iata": "OWB", "name": "Owensboro Daviess County Airport", "lat": 37.74010086, "lon": -87.16680145, "elev_ft": 407, "type": "medium_airport"}, {"icao": "KOWD", "iata": "OWD", "name": "Norwood Memorial Airport", "lat": 42.1904983521, "lon": -71.1728973389, "elev_ft": 49, "type": "medium_airport"}, {"icao": "KOXB", "iata": "OCE", "name": "Ocean City Municipal Airport", "lat": 38.310398, "lon": -75.124001, "elev_ft": 11, "type": "medium_airport"}, {"icao": "KOXR", "iata": "OXR", "name": "Oxnard Airport", "lat": 34.200801849365, "lon": -119.20700073242, "elev_ft": 45, "type": "medium_airport"}, {"icao": "KOZR", "iata": "OZR", "name": "Cairns AAF (Fort Rucker) Air Field", "lat": 31.27569962, "lon": -85.71340179, "elev_ft": 301, "type": "medium_airport"}, {"icao": "KPAE", "iata": "PAE", "name": "Seattle Paine Field International Airport", "lat": 47.9063, "lon": -122.281998, "elev_ft": 606, "type": "medium_airport"}, {"icao": "KPAH", "iata": "PAH", "name": "Barkley Regional Airport", "lat": 37.06079864501953, "lon": -88.7738037109375, "elev_ft": 410, "type": "medium_airport"}, {"icao": "KPAM", "iata": "PAM", "name": "Tyndall Air Force Base", "lat": 30.069599, "lon": -85.575401, "elev_ft": 17, "type": "medium_airport"}, {"icao": "KPAO", "iata": "PAO", "name": "Palo Alto Airport", "lat": 37.461102, "lon": -122.114998, "elev_ft": 4, "type": "medium_airport"}, {"icao": "KPBF", "iata": "PBF", "name": "Pine Bluff Regional Airport, Grider Field", "lat": 34.174121, "lon": -91.935643, "elev_ft": 206, "type": "medium_airport"}, {"icao": "KPBG", "iata": "PBG", "name": "Plattsburgh International Airport", "lat": 44.650902, "lon": -73.468102, "elev_ft": 234, "type": "medium_airport"}, {"icao": "KPBI", "iata": "PBI", "name": "Palm Beach International Airport", "lat": 26.683201, "lon": -80.095596, "elev_ft": 19, "type": "large_airport"}, {"icao": "KPDK", "iata": "PDK", "name": "DeKalb Peachtree Airport", "lat": 33.87633, "lon": -84.30213, "elev_ft": 1003, "type": "medium_airport"}, {"icao": "KPDT", "iata": "PDT", "name": "Eastern Oregon Regional Airport at Pendleton", "lat": 45.695099, "lon": -118.841003, "elev_ft": 1497, "type": "medium_airport"}, {"icao": "KPDX", "iata": "PDX", "name": "Portland International Airport", "lat": 45.588699, "lon": -122.598, "elev_ft": 31, "type": "large_airport"}, {"icao": "KPGA", "iata": "PGA", "name": "Page Municipal Airport", "lat": 36.924234, "lon": -111.447716, "elev_ft": 4316, "type": "medium_airport"}, {"icao": "KPGD", "iata": "PGD", "name": "Punta Gorda Airport", "lat": 26.9202, "lon": -81.990501, "elev_ft": 26, "type": "medium_airport"}, {"icao": "KPGV", "iata": "PGV", "name": "Pitt-Greenville Airport", "lat": 35.635535, "lon": -77.384262, "elev_ft": 26, "type": "medium_airport"}, {"icao": "KPHF", "iata": "PHF", "name": "Newport News Williamsburg International Airport", "lat": 37.131901, "lon": -76.492996, "elev_ft": 42, "type": "medium_airport"}, {"icao": "KPHL", "iata": "PHL", "name": "Philadelphia International Airport", "lat": 39.871899, "lon": -75.241096, "elev_ft": 36, "type": "large_airport"}, {"icao": "KPHX", "iata": "PHX", "name": "Phoenix Sky Harbor International Airport", "lat": 33.435302, "lon": -112.005905, "elev_ft": 1135, "type": "large_airport"}, {"icao": "KPIA", "iata": "PIA", "name": "General Wayne A. Downing Peoria International Airport", "lat": 40.663841, "lon": -89.692631, "elev_ft": 660, "type": "medium_airport"}, {"icao": "KPIB", "iata": "PIB", "name": "Hattiesburg Laurel Regional Airport", "lat": 31.4671, "lon": -89.337097, "elev_ft": 298, "type": "medium_airport"}, {"icao": "KPIE", "iata": "PIE", "name": "St. Petersburg Clearwater International Airport", "lat": 27.9102, "lon": -82.687401, "elev_ft": 11, "type": "large_airport"}, {"icao": "KPIH", "iata": "PIH", "name": "Pocatello Regional Airport", "lat": 42.9098014831543, "lon": -112.59600067138672, "elev_ft": 4452, "type": "medium_airport"}, {"icao": "KPIR", "iata": "PIR", "name": "Pierre Regional Airport", "lat": 44.38270187, "lon": -100.2860031, "elev_ft": 1744, "type": "medium_airport"}, {"icao": "KPIT", "iata": "PIT", "name": "Pittsburgh International Airport", "lat": 40.491501, "lon": -80.232903, "elev_ft": 1203, "type": "large_airport"}, {"icao": "KPKB", "iata": "PKB", "name": "Mid Ohio Valley Regional Airport", "lat": 39.3451, "lon": -81.439201, "elev_ft": 858, "type": "medium_airport"}, {"icao": "KPLN", "iata": "PLN", "name": "Pellston Regional Airport of Emmet County Airport", "lat": 45.57089996, "lon": -84.79669952, "elev_ft": 721, "type": "medium_airport"}, {"icao": "KPMD", "iata": "PMD", "name": "Palmdale Regional Airport / USAF Plant 42 Airport", "lat": 34.629398, "lon": -118.084999, "elev_ft": 2543, "type": "medium_airport"}, {"icao": "KPNA", "iata": "PWY", "name": "Ralph Wenz Field", "lat": 42.79550171, "lon": -109.8069992, "elev_ft": 7102, "type": "medium_airport"}, {"icao": "KPNC", "iata": "PNC", "name": "Ponca City Regional Airport", "lat": 36.73199844, "lon": -97.09980011, "elev_ft": 1008, "type": "medium_airport"}, {"icao": "KPNE", "iata": "PNE", "name": "Northeast Philadelphia Airport", "lat": 40.082406, "lon": -75.010614, "elev_ft": 120, "type": "medium_airport"}, {"icao": "KPNS", "iata": "PNS", "name": "Pensacola International Airport", "lat": 30.472718, "lon": -87.186639, "elev_ft": 121, "type": "large_airport"}, {"icao": "KPOB", "iata": "POB", "name": "Pope Field", "lat": 35.170898, "lon": -79.014503, "elev_ft": 217, "type": "medium_airport"}, {"icao": "KPOE", "iata": "POE", "name": "Polk Army Air Field", "lat": 31.0447998, "lon": -93.1917038, "elev_ft": 330, "type": "medium_airport"}, {"icao": "KPOU", "iata": "POU", "name": "Dutchess County Airport", "lat": 41.6265983581543, "lon": -73.88420104980469, "elev_ft": 165, "type": "medium_airport"}, {"icao": "KPQI", "iata": "PQI", "name": "Presque Isle International Airport", "lat": 46.688999, "lon": -68.0448, "elev_ft": 534, "type": "medium_airport"}, {"icao": "KPRB", "iata": "PRB", "name": "Paso Robles Municipal Airport", "lat": 35.67290115, "lon": -120.6269989, "elev_ft": 840, "type": "medium_airport"}, {"icao": "KPRC", "iata": "PRC", "name": "Prescott Regional Airport - Ernest A. Love Field", "lat": 34.653502, "lon": -112.419883, "elev_ft": 5045, "type": "medium_airport"}, {"icao": "KPRX", "iata": "PRX", "name": "Cox Field", "lat": 33.636600494385, "lon": -95.450798034668, "elev_ft": 547, "type": "medium_airport"}, {"icao": "KPSC", "iata": "PSC", "name": "Tri Cities Airport", "lat": 46.264702, "lon": -119.119003, "elev_ft": 410, "type": "medium_airport"}, {"icao": "KPSM", "iata": "PSM", "name": "Portsmouth International Airport at Pease", "lat": 43.0779, "lon": -70.823303, "elev_ft": 100, "type": "medium_airport"}, {"icao": "KPSP", "iata": "PSP", "name": "Palm Springs International Airport", "lat": 33.8297, "lon": -116.507004, "elev_ft": 477, "type": "large_airport"}, {"icao": "KPTK", "iata": "PTK", "name": "Oakland County International Airport", "lat": 42.665500640869, "lon": -83.420097351074, "elev_ft": 980, "type": "medium_airport"}, {"icao": "KPUB", "iata": "PUB", "name": "Pueblo Memorial Airport", "lat": 38.289101, "lon": -104.497002, "elev_ft": 4726, "type": "medium_airport"}, {"icao": "KPUW", "iata": "PUW", "name": "Pullman-Moscow Regional Airport", "lat": 46.741601, "lon": -117.11163, "elev_ft": 2556, "type": "medium_airport"}, {"icao": "KPVD", "iata": "PVD", "name": "Rhode Island T. F. Green International Airport", "lat": 41.725038, "lon": -71.425668, "elev_ft": 55, "type": "large_airport"}, {"icao": "KPVU", "iata": "PVU", "name": "Provo Municipal Airport", "lat": 40.218894, "lon": -111.722445, "elev_ft": 4497, "type": "medium_airport"}, {"icao": "KPWK", "iata": "PWK", "name": "Chicago Executive Airport", "lat": 42.114222, "lon": -87.901494, "elev_ft": 647, "type": "medium_airport"}, {"icao": "KPWM", "iata": "PWM", "name": "Portland International Jetport", "lat": 43.646198, "lon": -70.309303, "elev_ft": 76, "type": "large_airport"}, {"icao": "KPWT", "iata": "PWT", "name": "Bremerton National Airport", "lat": 47.490200042725, "lon": -122.76499938965, "elev_ft": 444, "type": "medium_airport"}, {"icao": "KRAL", "iata": "RAL", "name": "Riverside Municipal Airport", "lat": 33.9519, "lon": -117.445, "elev_ft": 819, "type": "medium_airport"}, {"icao": "KRAP", "iata": "RAP", "name": "Rapid City Regional Airport", "lat": 44.0452995300293, "lon": -103.05699920654297, "elev_ft": 3204, "type": "medium_airport"}, {"icao": "KRBL", "iata": "RBL", "name": "Red Bluff Municipal Airport", "lat": 40.1506996155, "lon": -122.251998901, "elev_ft": 352, "type": "medium_airport"}, {"icao": "KRCA", "iata": "RCA", "name": "Ellsworth Air Force Base", "lat": 44.14500046, "lon": -103.1039963, "elev_ft": 3276, "type": "medium_airport"}, {"icao": "KRDD", "iata": "RDD", "name": "Redding Municipal Airport", "lat": 40.50899887, "lon": -122.2929993, "elev_ft": 505, "type": "medium_airport"}, {"icao": "KRDG", "iata": "RDG", "name": "Reading Regional Airport (Carl A Spaatz Field)", "lat": 40.378502, "lon": -75.965202, "elev_ft": 344, "type": "medium_airport"}, {"icao": "KRDM", "iata": "RDM", "name": "Roberts Field", "lat": 44.254101, "lon": -121.150002, "elev_ft": 3080, "type": "medium_airport"}, {"icao": "KRDR", "iata": "RDR", "name": "Grand Forks Air Force Base", "lat": 47.961101532, "lon": -97.4011993408, "elev_ft": 913, "type": "medium_airport"}, {"icao": "KRDU", "iata": "RDU", "name": "Raleigh-Durham International Airport", "lat": 35.878659, "lon": -78.7873, "elev_ft": 435, "type": "large_airport"}, {"icao": "KRFD", "iata": "RFD", "name": "Chicago Rockford International Airport", "lat": 42.1954, "lon": -89.097198, "elev_ft": 742, "type": "medium_airport"}, {"icao": "KRHI", "iata": "RHI", "name": "Rhinelander Oneida County Airport", "lat": 45.63119888305664, "lon": -89.46749877929688, "elev_ft": 1624, "type": "medium_airport"}, {"icao": "KRIC", "iata": "RIC", "name": "Richmond International Airport", "lat": 37.505199, "lon": -77.319702, "elev_ft": 167, "type": "large_airport"}, {"icao": "KRIL", "iata": "RIL", "name": "Garfield County Regional Airport", "lat": 39.526299, "lon": -107.726997, "elev_ft": 5548, "type": "medium_airport"}, {"icao": "KRIV", "iata": "RIV", "name": "March Air Reserve Base", "lat": 33.880699, "lon": -117.259003, "elev_ft": 1536, "type": "medium_airport"}, {"icao": "KRIW", "iata": "RIW", "name": "Central Wyoming Regional Airport", "lat": 43.064201, "lon": -108.459999, "elev_ft": 5525, "type": "medium_airport"}, {"icao": "KRKD", "iata": "RKD", "name": "Knox County Regional Airport", "lat": 44.060101, "lon": -69.099197, "elev_ft": 56, "type": "medium_airport"}, {"icao": "KRKS", "iata": "RKS", "name": "Southwest Wyoming Regional Airport", "lat": 41.5942, "lon": -109.065001, "elev_ft": 6764, "type": "medium_airport"}, {"icao": "KRME", "iata": "RME", "name": "Griffiss International Airport", "lat": 43.23379898, "lon": -75.40699768, "elev_ft": 504, "type": "medium_airport"}, {"icao": "KRMG", "iata": "RMG", "name": "Richard B Russell Airport", "lat": 34.3506011963, "lon": -85.15799713130001, "elev_ft": 644, "type": "medium_airport"}, {"icao": "KRND", "iata": "RND", "name": "Randolph Air Force Base", "lat": 29.529699, "lon": -98.2789, "elev_ft": 761, "type": "medium_airport"}, {"icao": "KRNH", "iata": "RNH", "name": "New Richmond Regional Airport", "lat": 45.1483, "lon": -92.538101, "elev_ft": 998, "type": "medium_airport"}, {"icao": "KRNO", "iata": "RNO", "name": "Reno Tahoe International Airport", "lat": 39.4991, "lon": -119.767998, "elev_ft": 4415, "type": "large_airport"}, {"icao": "KROA", "iata": "ROA", "name": "Roanoke\u2013Blacksburg Regional Airport", "lat": 37.3255, "lon": -79.975403, "elev_ft": 1175, "type": "medium_airport"}, {"icao": "KROC", "iata": "ROC", "name": "Frederick Douglass Greater Rochester International Airport", "lat": 43.1189, "lon": -77.672401, "elev_ft": 559, "type": "large_airport"}, {"icao": "KROW", "iata": "ROW", "name": "Roswell Air Center Airport", "lat": 33.301601, "lon": -104.530998, "elev_ft": 3671, "type": "medium_airport"}, {"icao": "KRSL", "iata": "RSL", "name": "Russell Municipal Airport", "lat": 38.872100830078, "lon": -98.811798095703, "elev_ft": 1862, "type": "medium_airport"}, {"icao": "KRST", "iata": "RST", "name": "Rochester International Airport", "lat": 43.908298, "lon": -92.5, "elev_ft": 1317, "type": "medium_airport"},